case,eventid,year_m,iyear,imonth,iday,region,country_txt,city,latitude,longitude,attacktype1,nkill,nwound,level
57,1.99201E+11,1992.083333,1992,1,6,5,Cambodia,Stoung and Kompong Svay Districts,12.901934,104.525757,3,13,32,20.6
198,1.99201E+11,1992.083333,1992,1,17,11,Djibouti,Unknown,11.519184,42.262496,2,61,9,40.2
208,1.99201E+11,1992.083333,1992,1,18,11,Djibouti,Kalaf,11.759351,42.791767,2,105,10,67
307,1.99201E+11,1992.083333,1992,1,26,6,Sri Lanka,Aranthalawa,7.528,81.477833,3,13,32,20.6
320,1.99201E+11,1992.083333,1992,1,28,7,Azerbaijan,Shushi,39.756517,46.747628,3,47,0,28.2
488,1.99202E+11,1992.166667,1992,2,10,11,Djibouti,Yoboki,11.510046,42.10496,2,60,2,36.8
489,1.99202E+11,1992.166667,1992,2,10,6,Sri Lanka,Mullaitivu,9.267091,80.814248,2,41,0,24.6
524,1.99202E+11,1992.166667,1992,2,13,6,India,Bara,24.031667,79.151389,2,37,0,22.2
543,1.99202E+11,1992.166667,1992,2,15,5,Philippines,Marihatag,8.801867,126.30035,2,42,18,32.4
601,1.99202E+11,1992.166667,1992,2,19,11,Nigeria,Utan Brama,4.595669,8.270638,2,80,0,48
697,1.99202E+11,1992.166667,1992,2,29,6,Afghanistan,Kabul,34.533056,69.166111,3,11,70,34.6
819,1.99203E+11,1992.25,1992,3,10,11,Rwanda,Kigali,-1.949011,30.057852,2,35,0,21
861,1.99203E+11,1992.25,1992,3,12,11,Rwanda,Mutura,-1.59957,29.38169,2,38,0,22.8
875,1.99203E+11,1992.25,1992,3,13,7,Azerbaijan,Nagorno-Karabakh,,,2,50,0,30
924,1.99203E+11,1992.25,1992,3,16,11,Mozambique,Maputo,-25.891968,32.605135,2,34,0,20.4
930,1.99203E+11,1992.25,1992,3,17,3,Argentina,Buenos Aires,-34.6037,-58.381503,3,29,220,105.4
1212,1.99203E+11,1992.25,1992,3,31,11,Madagascar,Antananarivo,-18.92232,47.51724,2,8,40,20.8
1234,1.99204E+11,1992.333333,1992,4,1,11,South Africa,Alexandra,-26.103533,28.097631,2,11,90,42.6
1274,1.99204E+11,1992.333333,1992,4,3,5,Myanmar,not stated,,,2,33,15,25.8
1275,1.99204E+11,1992.333333,1992,4,3,11,Mozambique,Canganetole,-18.487663,34.487638,2,35,27,31.8
1283,1.99204E+11,1992.333333,1992,4,4,11,Ethiopia,Jijiga,9.356784,42.795518,2,200,300,240
1330,1.99204E+11,1992.333333,1992,4,8,11,Burundi,Unknown,-2.888895,29.120025,2,61,19,44.2
1347,1.99204E+11,1992.333333,1992,4,10,6,Sri Lanka,Colombo,6.927079,79.861243,3,25,40,31
1348,1.99204E+11,1992.333333,1992,4,10,6,Sri Lanka,Ampara,7.301756,81.67473,3,45,40,43
1352,1.99204E+11,1992.333333,1992,4,10,8,United Kingdom,London,51.500152,-0.126236,3,3,90,37.8
1353,1.99204E+11,1992.333333,1992,4,10,6,Bangladesh,Lohajang,23.474305,90.32073,2,11,50,26.6
1360,1.99204E+11,1992.333333,1992,4,11,5,Philippines,Sagada,17.084296,120.900532,2,40,0,24
1370,1.99204E+11,1992.333333,1992,4,12,11,Kenya,Bungoma,0.569472,34.559917,2,40,0,24
1438,1.99204E+11,1992.333333,1992,4,17,11,Ethiopia,Mecera,,,2,126,10,79.6
1459,1.99204E+11,1992.333333,1992,4,19,5,Philippines,Iligan,8.240043,124.244766,3,7,80,36.2
1544,1.99204E+11,1992.333333,1992,4,28,6,Sri Lanka,Alinchipotana,7.95,81.133333,2,56,17,40.4
1562,1.99204E+11,1992.333333,1992,4,29,6,Sri Lanka,Muthugala,7.375278,80.166667,2,42,0,25.2
1679,1.99205E+11,1992.416667,1992,5,6,3,Peru,Lima,-12.046378,-77.042791,3,30,36,32.4
1714,1.99205E+11,1992.416667,1992,5,8,6,Pakistan,Karachi,24.857488,67.017953,2,4,100,42.4
1729,1.99205E+11,1992.416667,1992,5,9,5,Philippines,General Santos,6.118078,125.172684,3,5,51,23.4
1829,1.99205E+11,1992.416667,1992,5,16,6,India,New Delhi,28.632381,77.220004,2,4,85,36.4
1845,1.99205E+11,1992.416667,1992,5,17,11,Nigeria,Zango-Kataf,9.791087,8.281157,2,13,100,47.8
2140,1.99206E+11,1992.5,1992,6,9,11,South Africa,Boipatong,-26.665562,27.849168,2,34,0,20.4
2232,1.99206E+11,1992.5,1992,6,18,11,South Africa,Boipatong,-26.665562,27.849168,2,39,0,23.4
2418,1.99207E+11,1992.583333,1992,7,6,6,Sri Lanka,Jaffna district,9.66123,80.02558,2,30,9,21.6
2426,1.99207E+11,1992.583333,1992,7,7,10,West Bank and Gaza Strip,Gaza,31.522561,34.453593,2,1,50,20.6
2476,1.99207E+11,1992.583333,1992,7,11,6,Sri Lanka,Anuradhapura,8.345185,80.388133,2,40,0,24
2530,1.99207E+11,1992.583333,1992,7,16,3,Peru,Lima,-12.046378,-77.042791,3,18,100,50.8
2549,1.99207E+11,1992.583333,1992,7,18,6,Bangladesh,Dhaka,23.811388,90.412106,2,1,50,20.6
2678,1.99207E+11,1992.583333,1992,7,26,6,Bangladesh,Dhaka,23.811388,90.412106,3,0,100,40
2754,1.99208E+11,1992.666667,1992,8,2,6,Afghanistan,Kabul,34.533056,69.166111,3,14,97,47.2
2832,1.99208E+11,1992.666667,1992,8,7,3,Peru,Pichihuillca,,,2,25,15,21
2904,1.99208E+11,1992.666667,1992,8,13,5,Thailand,Hat Yai,7.013983,100.471242,3,3,70,29.8
3035,1.99208E+11,1992.666667,1992,8,23,8,Germany,Rostock,54.083273,12.100328,2,0,74,29.6
3056,1.99208E+11,1992.666667,1992,8,25,8,Germany,Rostock,54.083273,12.100328,2,0,65,26
3067,1.99208E+11,1992.666667,1992,8,26,10,Algeria,Algiers,36.70058,3.21167,3,9,100,45.4
3148,1.99209E+11,1992.75,1992,9,2,11,Chad,Unknown,,,2,150,0,90
3348,1.99209E+11,1992.75,1992,9,13,10,Turkey,Aktutun,,,2,52,0,31.2
3547,1.99209E+11,1992.75,1992,9,28,6,India,Pathankot,32.264338,75.642112,3,4,55,24.4
3589,1.9921E+11,1992.833333,1992,10,1,10,Turkey,Unknown,,,2,55,25,43
3606,1.9921E+11,1992.833333,1992,10,3,10,Iraq,Hakurk,,,2,60,0,36
3654,1.9921E+11,1992.833333,1992,10,7,6,India,Delhi,28.690053,77.190585,3,11,61,31
3705,1.9921E+11,1992.833333,1992,10,10,3,Peru,Huayan,-9.875174,-77.708213,3,44,0,26.4
3825,1.9921E+11,1992.833333,1992,10,15,6,Sri Lanka,Palliyagodella,8.140833,81.105556,2,84,0,50.4
3958,1.9921E+11,1992.833333,1992,10,24,11,South Africa,Folweni,-29.994826,30.824819,2,20,27,22.8
3974,1.9921E+11,1992.833333,1992,10,25,10,Turkey,Yoreaik,,,3,3,47,20.6
4080,1.9921E+11,1992.833333,1992,10,31,6,India,Jammu,32.726602,74.857026,3,17,30,22.2
4210,1.99211E+11,1992.916667,1992,11,7,3,Colombia,Medellin district,6.270526,-75.572173,3,4,57,25.2
4242,1.99211E+11,1992.916667,1992,11,8,5,Myanmar,Hteinmelian,,,2,35,0,21
4504,1.99211E+11,1992.916667,1992,11,21,7,Tajikistan,Dushanbe,28.291564,-16.62913,2,0,800,320
4506,1.99211E+11,1992.916667,1992,11,21,6,India,Guwahati,26.179222,91.753346,3,38,20,30.8
4686,1.99212E+11,1993,1992,12,3,8,United Kingdom,Manchester,53.480713,-2.234377,3,0,58,23.2
4740,1.99212E+11,1993,1992,12,7,6,India,Unknown,22.258652,71.192381,2,27,100,56.2
4773,1.99212E+11,1993,1992,12,8,6,India,Bombay,19.075984,72.877656,2,115,0,69
4798,1.99212E+11,1993,1992,12,9,6,India,Unknown,26.200605,92.937574,9,61,0,36.6
4846,1.99212E+11,1993,1992,12,12,5,Philippines,Tungawan,7.508549,122.371604,2,40,10,28
4849,1.99212E+11,1993,1992,12,12,11,Kenya,Unknown,,,2,89,0,53.4
5003,1.99212E+11,1993,1992,12,24,6,Sri Lanka,Welioya,8.964041,80.787941,2,42,30,37.2
5079,1.99401E+11,1994.083333,1994,1,1,1,Mexico,San Cristobal de Las Casas,16.738601,-92.633229,2,57,0,34.2
5102,1.99401E+11,1994.083333,1994,1,1,7,Tajikistan,Unknown,,,8,15,53,30.2
5258,1.99401E+11,1994.083333,1994,1,19,6,Sri Lanka,Rambewa,8.440107,80.504944,3,15,40,25
5470,1.99402E+11,1994.166667,1994,2,6,11,Angola,Kuito,-12.383203,16.933844,3,48,62,53.6
5692,1.99402E+11,1994.166667,1994,2,25,10,West Bank and Gaza Strip,Hebron,31.532569,35.099826,2,48,100,68.8
5709,1.99402E+11,1994.166667,1994,2,27,10,Lebanon,Zouk,,,3,10,60,30
5968,1.99403E+11,1994.25,1994,3,18,10,Iran,Khorramshahr,30.421488,48.207451,3,0,150,60
5969,1.99403E+11,1994.25,1994,3,18,10,Iran,Hoseyniyeh,32.681298,48.246732,2,0,60,24
5977,1.99403E+11,1994.25,1994,3,19,7,Azerbaijan,Yasamal,40.38627,49.809899,3,12,53,28.4
6022,1.99403E+11,1994.25,1994,3,23,12,Papua New Guinea,Buin,-6.7465,155.685171,2,17,26,20.6
6059,1.99403E+11,1994.25,1994,3,26,10,Turkey,Unknown,,,2,77,0,46.2
6089,1.99403E+11,1994.25,1994,3,28,11,South Africa,Johannesburg,-26.177929,27.974858,2,53,173,101
6178,1.99404E+11,1994.333333,1994,4,5,10,Turkey,Cevirme,39.670837,44.216257,2,59,0,35.4
6199,1.99404E+11,1994.333333,1994,4,6,10,Israel,Afula,32.609885,35.290105,3,8,50,24.8
6233,1.99404E+11,1994.333333,1994,4,9,11,Liberia,Buchanan,5.880801,-10.046602,2,62,0,37.2
6292,1.99404E+11,1994.333333,1994,4,13,11,Rwanda,Gikoro,-1.932787,30.332456,2,1180,0,708
6361,1.99404E+11,1994.333333,1994,4,20,10,Turkey,Unknown,39.626922,43.021597,2,43,6,28.2
6409,1.99404E+11,1994.333333,1994,4,24,11,Rwanda,Butare,-2.607735,29.736193,2,170,0,102
6412,1.99404E+11,1994.333333,1994,4,24,11,South Africa,Johannesburg,-26.177929,27.974858,3,7,92,41
6428,1.99404E+11,1994.333333,1994,4,25,11,South Africa,Germiston,-26.214336,28.167874,3,10,41,22.4
6492,1.99404E+11,1994.333333,1994,4,30,11,Sierra Leone,Bandajuma Sowa,8.311203,-10.848706,2,35,0,21
6565,1.99405E+11,1994.416667,1994,5,7,11,Kenya,Wajir,1.748781,40.059564,3,35,0,21
6616,1.99405E+11,1994.416667,1994,5,12,10,Turkey,Unknown,37.449429,43.750656,2,34,0,20.4
6660,1.99405E+11,1994.416667,1994,5,16,11,Niger,Tiawa,13.5032,1.2872,2,40,0,24
6713,1.99405E+11,1994.416667,1994,5,19,6,Afghanistan,Kabul,34.533056,69.166111,3,20,30,24
6850,1.99406E+11,1994.5,1994,6,5,10,Turkey,Unknown,,,2,37,0,22.2
6888,1.99406E+11,1994.5,1994,6,9,11,Rwanda,Kigali,-1.949011,30.057852,2,70,0,42
6922,1.99406E+11,1994.5,1994,6,13,10,Iraq,Sulaymaniyah,35.54987,45.433493,2,51,40,46.6
6993,1.99406E+11,1994.5,1994,6,20,10,Iran,Mashhad,36.32396,59.556959,3,70,100,82
7044,1.99406E+11,1994.5,1994,6,27,4,Japan,Matsumoto,35.713679,139.876762,8,7,500,204.2
7055,1.99406E+11,1994.5,1994,6,29,11,Sierra Leone,Teh,7.790662,-11.889172,2,60,0,36
7058,1.99406E+11,1994.5,1994,6,29,10,Algeria,Algiers,36.7525,3.04197,3,0,64,25.6
7183,1.99407E+11,1994.583333,1994,7,18,3,Argentina,Buenos Aires,-34.6037,-58.381503,3,85,236,145.4
7271,1.99407E+11,1994.583333,1994,7,24,6,India,Banabari,26.833611,92.223889,2,70,100,82
7273,1.99407E+11,1994.583333,1994,7,25,11,Mali,Unknown,,,9,35,0,21
7278,1.99407E+11,1994.583333,1994,7,26,6,Bangladesh,Chittagong,22.347537,91.812332,9,6,150,63.6
7327,1.99408E+11,1994.666667,1994,8,2,6,Sri Lanka,Batticaloa district,7.716666,81.700188,9,30,14,23.6
7483,1.99408E+11,1994.666667,1994,8,25,10,Iraq,Arbil,36.191107,44.009101,3,10,100,46
7550,1.99409E+11,1994.75,1994,9,4,7,Armenia,Bagratashen,41.245833,44.821111,3,14,46,26.8
7579,1.99409E+11,1994.75,1994,9,9,11,Sierra Leone,Bo,7.936427,-11.348073,3,40,0,24
7582,1.99409E+11,1994.75,1994,9,9,11,Burundi,Bujumbura,-3.382942,29.367103,3,3,76,32.2
7674,1.99409E+11,1994.75,1994,9,20,4,China,Beijing,39.905556,116.395833,2,14,80,40.4
7765,1.99409E+11,1994.75,1994,9,29,2,Haiti,Port-Au-Prince,18.5391667,-72.335,3,5,43,20.2
7774,1.99409E+11,1994.75,1994,9,30,5,Philippines,Unknown,8.587025,123.342026,2,8,40,20.8
7925,1.9941E+11,1994.833333,1994,10,19,10,Israel,Tel Aviv,32.085688,34.783684,3,23,42,30.6
7934,1.9941E+11,1994.833333,1994,10,20,6,India,Bishnupur,24.628724,93.761325,9,37,0,22.2
7938,1.9941E+11,1994.833333,1994,10,20,5,Philippines,Carmen,7.206351,124.795276,2,12,36,21.6
7953,1.9941E+11,1994.833333,1994,10,22,5,Cambodia,"Bavel Vil, Battenburg Province",13.254595,102.880248,5,50,0,30
7959,1.9941E+11,1994.833333,1994,10,23,6,Bangladesh,Khulna,22.845641,89.540328,2,2,50,21.2
7962,1.9941E+11,1994.833333,1994,10,24,11,Burundi,Gittwa,,,2,54,16,38.8
7965,1.9941E+11,1994.833333,1994,10,24,6,Sri Lanka,Colombo,6.927079,79.861243,1,54,300,152.4
7996,1.9941E+11,1994.833333,1994,10,29,5,Cambodia,Battambang Prov.,13.1,103.2,2,40,6,26.4
8015,1.9941E+11,1994.833333,1994,10,30,11,Rwanda,Rutagara,-2.516032,29.268044,9,36,0,21.6
8033,1.99411E+11,1994.916667,1994,11,3,6,Pakistan,Mingora,34.77436,72.356922,3,25,45,33
8131,1.99411E+11,1994.916667,1994,11,17,10,Algeria,El Bayadh,33.680278,1.020278,9,55,0,33
8399,1.99412E+11,1995,1994,12,16,11,Liberia,Monrovia,6.290743,-10.760524,2,48,0,28.8
8573,1.99501E+11,1995.083333,1995,1,7,11,Rwanda,Remera,-1.949506,30.107128,2,12,37,22
8628,1.99501E+11,1995.083333,1995,1,14,4,China,Kunming,25.037721,102.722202,3,1,98,39.8
8714,1.99501E+11,1995.083333,1995,1,26,6,India,Jammu,32.726602,74.857026,3,8,60,28.8
8745,1.99501E+11,1995.083333,1995,1,30,10,Algeria,Algiers,36.7525,3.04197,3,42,286,139.6
8833,1.99502E+11,1995.166667,1995,2,12,6,Bangladesh,Rajshahi,24.366667,88.6,3,2,100,41.2
8948,1.99502E+11,1995.166667,1995,2,25,6,India,Lailalong,,,3,27,25,26.2
8967,1.99502E+11,1995.166667,1995,2,27,10,Iraq,Zakho,37.137891,42.699011,3,76,141,102
9083,1.99503E+11,1995.25,1995,3,10,10,Algeria,Algiers,36.7525,3.04197,3,0,60,24
9141,1.99503E+11,1995.25,1995,3,15,6,Bangladesh,Unknown,,,7,1,100,40.6
9177,1.99503E+11,1995.25,1995,3,18,10,Turkey,Ovacik,39.363724,39.215531,2,25,25,25
9202,1.99503E+11,1995.25,1995,3,20,4,Japan,Tokyo,35.685826,139.756684,8,13,5500,2207.8
9290,1.99504E+11,1995.333333,1995,4,4,5,Philippines,Ipil,7.78403,122.593085,5,114,1,68.8
9326,1.99504E+11,1995.333333,1995,4,9,10,West Bank and Gaza Strip,Kfar Darom,31.401401,34.360064,3,8,40,20.8
9398,1.99504E+11,1995.333333,1995,4,19,1,United States,Oklahoma City,35.472015,-97.520354,3,168,650,360.8
9399,1.99504E+11,1995.333333,1995,4,19,4,Japan,Yokohama,35.443708,139.638026,8,0,671,268.4
9406,1.99504E+11,1995.333333,1995,4,21,6,Sri Lanka,Batticaloa,7.716666,81.700188,3,25,40,31
9435,1.99504E+11,1995.333333,1995,4,28,6,Sri Lanka,Palaly,9.794723,80.072777,3,38,0,22.8
9440,1.99504E+11,1995.333333,1995,4,29,6,Sri Lanka,Palaly,9.794723,80.072777,3,52,0,31.2
9717,1.99505E+11,1995.416667,1995,5,25,10,Algeria,Algiers,36.7525,3.04197,3,37,3,23.4
9722,1.99505E+11,1995.416667,1995,5,26,6,Sri Lanka,Kallarawa,8.903002,81.00989,2,42,0,25.2
9882,1.99506E+11,1995.5,1995,6,10,3,Colombia,Medellin,6.270526,-75.572173,3,29,200,97.4
9902,1.99506E+11,1995.5,1995,6,12,6,Sri Lanka,Hikkaduwa,6.13847,80.099496,3,6,54,25.2
9921,1.99506E+11,1995.5,1995,6,14,9,Russia,Budyonnovsk,44.783889,44.165833,5,121,0,72.6
10163,1.99507E+11,1995.583333,1995,7,11,11,Burundi,Cagizo,-2.65977,30.309559,3,48,0,28.8
10231,1.99507E+11,1995.583333,1995,7,20,3,Peru,Trujillo,-8.081077,-79.000737,2,36,6,24
10235,1.99507E+11,1995.583333,1995,7,20,6,India,Jammu,32.726602,74.857026,3,16,46,28
10284,1.99507E+11,1995.583333,1995,7,25,8,France,Paris,48.856614,2.352222,3,7,86,38.6
10403,1.99508E+11,1995.666667,1995,8,7,6,Sri Lanka,Colombo,6.927079,79.861243,3,24,40,30.4
10412,1.99508E+11,1995.666667,1995,8,8,11,Burundi,Unknown,,,2,58,0,34.8
10498,1.99508E+11,1995.666667,1995,8,21,10,Israel,Jerusalem,31.766496,35.21172,3,6,100,43.6
10564,1.99508E+11,1995.666667,1995,8,26,11,Somalia,Mogadishu,2.03742,45.337971,9,22,150,73.2
10598,1.99508E+11,1995.666667,1995,8,31,10,Algeria,Algiers,36.7525,3.04197,3,9,104,47
10602,1.99508E+11,1995.666667,1995,8,31,6,India,Chandigarh,30.733315,76.779418,1,16,30,21.6
10608,1.99509E+11,1995.75,1995,9,2,10,Algeria,Meftah,36.616667,3.216667,3,6,83,36.8
10703,1.99509E+11,1995.75,1995,9,5,11,Burundi,Choga,-4.327584,29.699955,2,50,0,30
10709,1.99509E+11,1995.75,1995,9,6,6,Bangladesh,Dhaka,23.811388,90.412106,3,1,50,20.6
10742,1.99509E+11,1995.75,1995,9,11,11,Rwanda,Kanama,-1.688016,29.345272,2,111,15,72.6
10770,1.99509E+11,1995.75,1995,9,16,6,Bangladesh,Narayanganj,23.618999,90.498032,9,0,60,24
10912,1.9951E+11,1995.833333,1995,10,2,6,Sri Lanka,Unknown,8.885503,80.276733,3,15,34,22.6
10978,1.9951E+11,1995.833333,1995,10,9,1,United States,Hyder,33.014992,-113.352173,7,1,78,31.8
11086,1.9951E+11,1995.833333,1995,10,17,6,Bangladesh,Feni,23.013072,91.394048,2,0,100,40
11093,1.9951E+11,1995.833333,1995,10,18,3,Colombia,Bogota,4.598157,-74.07593,3,62,11,41.6
11105,1.9951E+11,1995.833333,1995,10,20,6,Sri Lanka,Colombo,6.927079,79.861243,3,25,32,27.8
11123,1.9951E+11,1995.833333,1995,10,22,10,Saudi Arabia,Qubbah,26.425278,36.523611,3,7,101,44.6
11125,1.9951E+11,1995.833333,1995,10,22,10,Algeria,Relizana,35.733333,0.55,3,11,82,39.4
11154,1.9951E+11,1995.833333,1995,10,26,6,Sri Lanka,Thamanagama,7.766667,80.366667,2,50,0,30
11219,1.9951E+11,1995.833333,1995,10,31,10,Iraq,Unknown,34.533753,43.483738,3,26,70,43.6
11226,1.99511E+11,1995.916667,1995,11,1,11,Burundi,Kayanza,-2.915247,29.623059,2,42,0,25.2
11281,1.99511E+11,1995.916667,1995,11,13,10,Saudi Arabia,Riyadh,24.64732,46.714581,3,7,60,28.2
11311,1.99511E+11,1995.916667,1995,11,19,6,Pakistan,Islamabad,33.708988,73.053857,3,16,60,33.6
11356,1.99511E+11,1995.916667,1995,11,24,6,Sri Lanka,Colombo,6.922957,79.849587,3,18,50,30.8
11400,1.99512E+11,1996,1995,12,3,4,China,Shenzhen,22.542601,114.057612,9,4,100,42.4
11409,1.99512E+11,1996,1995,12,5,6,Sri Lanka,Batticaloa district,7.716668,81.70019,2,57,0,34.2
11457,1.99512E+11,1995.916667,1995,11,11,6,Sri Lanka,Colombo,6.922957,79.849587,3,19,59,35
11465,1.99512E+11,1996,1995,12,12,10,Algeria,Algiers,36.752887,3.042048,3,15,40,25
11536,1.99512E+11,1996,1995,12,21,6,Pakistan,Peshawar,34.009667,71.579994,3,42,100,65.2
11539,1.99512E+11,1996,1995,12,21,6,Bangladesh,Rabarkona,,,9,0,60,24
11548,1.99512E+11,1996,1995,12,23,6,Sri Lanka,Batticaloa District,7.716666,81.700188,9,93,34,69.4
11658,1.99601E+11,1996.083333,1996,1,3,6,India,New Delhi,28.632381,77.220004,3,13,38,23
11691,1.99601E+11,1996.083333,1996,1,8,5,Philippines,Kabacan,7.107355,124.827773,2,4,60,26.4
11824,1.99601E+11,1996.083333,1996,1,20,5,Myanmar,SE Myanmar,,,9,20,25,22
11851,1.99601E+11,1996.083333,1996,1,23,6,Bangladesh,Sylhet,24.897778,91.871389,3,0,52,20.8
11882,1.99601E+11,1996.083333,1996,1,27,6,Bangladesh,Khulna,22.845641,89.540328,2,1,50,20.6
11908,1.99601E+11,1996.083333,1996,1,31,6,Sri Lanka,Colombo,6.927079,79.861243,3,90,1272,562.8
11969,1.99602E+11,1996.166667,1996,2,9,8,United Kingdom,London,51.500152,-0.126236,3,2,100,41.2
11983,1.99602E+11,1996.166667,1996,2,11,10,Algeria,Algiers,36.752887,3.042048,3,18,52,31.6
12095,1.99602E+11,1996.166667,1996,2,25,10,Israel,Jerusalem,31.766496,35.21172,3,26,50,35.6
12169,1.99603E+11,1996.25,1996,3,4,10,Israel,Tel Aviv,32.085688,34.783684,3,13,105,49.8
12180,1.99603E+11,1996.25,1996,3,7,6,Bangladesh,Khagrachari,23.110918,91.982417,2,1,50,20.6
12204,1.99603E+11,1996.25,1996,3,9,6,Bangladesh,Sandwip,22.493713,91.501501,2,1,50,20.6
12289,1.99603E+11,1996.25,1996,3,19,11,Uganda,Pabbo,2.997038,32.143426,2,34,0,20.4
12291,1.99603E+11,1996.25,1996,3,19,6,Bangladesh,Dhaka,23.811388,90.412106,3,0,200,80
12345,1.99603E+11,1996.25,1996,3,25,6,India,Gorakhpur,26.760555,83.373167,1,7,100,44.2
12443,1.99604E+11,1996.333333,1996,4,9,6,Bangladesh,Chittagong,22.347537,91.812332,9,0,150,60
12518,1.99604E+11,1996.333333,1996,4,16,3,Colombia,Unknown,1.637898,-77.745208,3,31,18,25.8
12588,1.99604E+11,1996.333333,1996,4,26,11,Burundi,Buhord,,,2,200,42,136.8
12602,1.99604E+11,1996.333333,1996,4,28,6,Pakistan,Phool Nagar,31.205882,73.943834,3,37,30,34.2
12666,1.99605E+11,1996.416667,1996,5,6,6,Sri Lanka,Mylanthenna,,,2,30,32,30.8
12709,1.99605E+11,1996.416667,1996,5,11,10,Algeria,Blida,36.480453,2.83388,3,3,70,29.8
12717,1.99605E+11,1996.416667,1996,5,12,11,Zaire,Unknown,,,9,100,0,60
12755,1.99605E+11,1996.416667,1996,5,17,11,Burundi,Kiganda,-3.336811,29.673113,2,50,0,30
12786,1.99605E+11,1996.416667,1996,5,19,11,Rwanda,Bugarama,-2.698556,29.008173,9,37,0,22.2
12813,1.99605E+11,1996.416667,1996,5,21,6,India,New Delhi,28.632381,77.220004,3,13,38,23
12818,1.99605E+11,1996.416667,1996,5,22,6,India,Mahwa,27.049968,76.926854,3,14,30,20.4
12828,1.99605E+11,1996.416667,1996,5,23,11,Burundi,Kivyuka,-3.016027,29.450726,9,375,0,225
12873,1.99605E+11,1996.416667,1996,5,28,11,Burundi,Butezi,-2.86951,30.130703,9,50,25,40
12987,1.99606E+11,1996.5,1996,6,12,6,Bangladesh,Unknown,,,9,0,200,80
13003,1.99606E+11,1996.5,1996,6,13,11,Burundi,Gitega,-3.427512,29.924253,2,70,2,42.8
13011,1.99606E+11,1996.5,1996,6,15,8,United Kingdom,Manchester,53.484224,-2.24117,3,0,200,80
13084,1.99606E+11,1996.5,1996,6,25,10,Saudi Arabia,Dhahran,26.26622,50.150466,3,19,386,165.8
13091,1.99606E+11,1996.5,1996,6,27,11,Burundi,Mugina,,,2,31,20,26.6
13103,1.99607E+11,1996.583333,1996,7,1,6,Sri Lanka,Meegaskapella,6.954722,81.488889,3,64,4,40
13115,1.99607E+11,1996.583333,1996,7,3,11,Burundi,Teza,-3.209682,29.563585,9,80,0,48
13122,1.99607E+11,1996.583333,1996,7,4,6,Sri Lanka,Jaffna,9.66123,80.02558,1,37,50,42.2
13171,1.99607E+11,1996.583333,1996,7,12,11,Uganda,Ochuloi,1.833333,33.516667,2,91,20,62.6
13229,1.99607E+11,1996.583333,1996,7,20,11,Burundi,Unknown,,,9,304,100,222.4
13288,1.99607E+11,1996.583333,1996,7,22,6,Pakistan,Lahore,31.554606,74.357158,3,4,68,29.6
13303,1.99607E+11,1996.583333,1996,7,24,6,Sri Lanka,Dehiwala,6.855948,79.862968,3,61,391,193
13313,1.99607E+11,1996.583333,1996,7,25,11,Uganda,Laliya,2.878003,32.718138,9,58,0,34.8
13334,1.99607E+11,1996.583333,1996,7,27,1,United States,Atlanta,33.748315,-84.391109,3,1,110,44.6
13335,1.99607E+11,1996.583333,1996,7,27,5,Indonesia,Jakarta,-6.208821,106.846046,2,5,149,62.6
13360,1.99607E+11,1996.583333,1996,7,29,6,India,Baramulla,34.205141,74.349494,3,2,100,41.2
13383,1.99608E+11,1996.666667,1996,8,1,6,Afghanistan,Unknown,34.171831,70.621679,3,15,30,21
13500,1.99608E+11,1996.666667,1996,8,18,6,Pakistan,Chak 205,29.477456,72.789336,2,18,69,38.4
13592,1.99608E+11,1996.666667,1996,8,29,6,Sri Lanka,Panadura,6.725196,79.918392,2,29,15,23.4
13694,1.99609E+11,1996.75,1996,9,10,6,Pakistan,Parachinar,33.896729,70.099832,3,97,89,93.8
13775,1.99609E+11,1996.75,1996,9,19,6,Sri Lanka,Wellimundawa,8.2,80.483333,2,40,0,24
13818,1.99609E+11,1996.75,1996,9,22,6,Pakistan,Multan,30.197843,71.467629,2,21,33,25.8
13860,1.99609E+11,1996.75,1996,9,26,6,Bangladesh,Kushtia District,23.905927,89.054947,3,0,150,60
13883,1.99609E+11,1996.75,1996,9,29,4,China,Santai,30.9493,104.4941,3,11,97,45.4
13949,1.9961E+11,1996.833333,1996,10,6,11,Zaire,Lerma,,,9,40,0,24
14028,1.9961E+11,1996.833333,1996,10,11,10,Algeria,Algiers,36.752887,3.042048,3,5,75,33
14036,1.9961E+11,1996.833333,1996,10,13,11,Burundi,Burambi,-3.929158,29.618652,9,40,0,24
14075,1.9961E+11,1996.833333,1996,10,17,11,Sierra Leone,Masanga,8.749202,-11.837144,2,36,0,21.6
14273,1.99611E+11,1996.916667,1996,11,10,10,Algeria,Algiers,36.752887,3.042048,3,15,30,21
14321,1.99611E+11,1996.916667,1996,11,16,9,Russia,Kaspiysk,42.883333,47.633333,3,43,8,29
14365,1.99611E+11,1996.916667,1996,11,24,2,El Salvador,San Pedro Perulapan,13.786461,-89.045407,3,5,55,25
14443,1.99612E+11,1997,1996,12,2,6,India,Ambala,30.378179,76.776697,3,12,37,22
14452,1.99612E+11,1997,1996,12,3,8,France,Paris,48.856614,2.352222,3,3,91,38.2
14527,1.99612E+11,1997,1996,12,9,6,India,Maiamnala,26.158436,94.562443,2,30,31,30.4
14616,1.99612E+11,1997,1996,12,23,10,Algeria,Algiers,36.752887,3.042048,3,3,70,29.8
14620,1.99612E+11,1997,1996,12,24,11,South Africa,Worcester,-33.64227,19.441589,3,4,80,34.4
14642,1.99612E+11,1997,1996,12,26,10,Algeria,Algiers,36.752887,3.042048,3,10,68,33.2
14647,1.99612E+11,1997,1996,12,27,10,Algeria,Algiers,36.752887,3.042048,3,10,86,40.4
14665,1.99612E+11,1997,1996,12,30,6,India,Sansapani,26.200604,92.937574,3,33,54,41.4
14667,1.99612E+11,1997,1996,12,31,10,Syria,Aleppo,36.212989,37.142588,3,15,50,29
14723,1.99701E+11,1997.083333,1997,1,7,10,Algeria,Algiers,36.752887,3.042048,3,13,100,47.8
14792,1.99701E+11,1997.083333,1997,1,16,11,Uganda,Kitgum,3.288485,32.87895,9,40,0,24
14806,1.99701E+11,1997.083333,1997,1,18,6,Pakistan,Lahore,31.554606,74.357158,1,26,90,51.6
14808,1.99701E+11,1997.083333,1997,1,18,6,Sri Lanka,Kebethegollawa,8.641085,80.669598,3,22,18,20.4
14810,1.99701E+11,1997.083333,1997,1,18,10,Algeria,Sidi Abdelaziz,36.854655,6.052698,9,36,0,21.6
14811,1.99701E+11,1997.083333,1997,1,18,10,Algeria,Sidi Abdelaziz,36.854655,6.052698,2,49,0,29.4
14821,1.99701E+11,1997.083333,1997,1,19,10,Algeria,Algiers,36.752887,3.042048,3,42,60,49.2
14822,1.99701E+11,1997.083333,1997,1,19,10,Algeria,Algiers,36.752887,3.042048,3,23,100,53.8
14845,1.99701E+11,1997.083333,1997,1,22,10,Algeria,Boufarik,36.57412,2.91214,3,7,60,28.2
15063,1.99702E+11,1997.166667,1997,2,12,10,Algeria,Sidi Ali,36.309255,2.800806,9,64,0,38.4
15151,1.99702E+11,1997.166667,1997,2,25,4,China,Urumqi,43.825645,87.616823,3,9,74,35
15152,1.99702E+11,1997.166667,1997,2,25,4,China,Urumqi,43.825645,87.616823,3,9,74,35
15153,1.99702E+11,1997.166667,1997,2,25,4,China,Urumqi,43.825645,87.616823,3,9,74,35
15167,1.99702E+11,1997.166667,1997,2,27,3,Colombia,Apartado,7.882318,-76.630626,3,11,60,30.6
15311,1.99703E+11,1997.25,1997,3,19,11,Burundi,Buganda district,-2.961686,29.194196,2,135,140,137
15338,1.99703E+11,1997.25,1997,3,21,10,Israel,Petah Tiqwa,32.076847,34.870548,3,4,47,21.2
15365,1.99703E+11,1997.25,1997,3,23,6,Bangladesh,Chittagong,22.347537,91.812332,9,1,98,39.8
15371,1.99703E+11,1997.25,1997,3,24,6,Sri Lanka,Mullaitivu district,9.267091,80.814248,3,81,58,71.8
15416,1.99703E+11,1997.25,1997,3,29,6,India,Unknown,33.778175,76.576171,3,18,53,32
15422,1.99703E+11,1997.25,1997,3,30,5,Cambodia,Phnom Penh,11.558831,104.917445,3,16,119,57.2
15533,1.99704E+11,1997.333333,1997,4,14,10,Algeria,Ch'ab Mohammed,29.55033,-2.38194,2,36,0,21.6
15570,1.99704E+11,1997.333333,1997,4,19,11,Burundi,Kayogoro,-2.915247,29.623059,9,0,70,28
15595,1.99704E+11,1997.333333,1997,4,22,10,Algeria,Haouch Boughlef-Khemisti,,,2,93,0,55.8
15612,1.99704E+11,1997.333333,1997,4,25,10,Algeria,Algiers,36.754153,3.042247,3,21,20,20.6
15649,1.99704E+11,1997.333333,1997,4,29,3,Colombia,Rio Viejo,8.588657,-73.840141,2,1,60,24.6
15765,1.99705E+11,1997.416667,1997,5,18,11,Burundi,Cibitoke,-2.889815,29.121514,2,0,60,24
15787,1.99705E+11,1997.416667,1997,5,22,10,Algeria,Boufarik,36.57412,2.91214,3,15,31,21.4
15854,1.99706E+11,1997.5,1997,6,1,10,Turkey,Cizre,37.33083,42.184602,3,6,50,23.6
15855,1.99706E+11,1997.5,1997,6,1,10,Algeria,Algiers,36.752887,3.042048,3,8,77,35.6
16043,1.99706E+11,1997.5,1997,6,18,10,Algeria,Dairat Labguer,,,2,54,0,32.4
16197,1.99707E+11,1997.583333,1997,7,3,11,Uganda,Butama,0.258052,30.52791,9,58,0,34.8
16249,1.99707E+11,1997.583333,1997,7,5,5,Cambodia,Phnom Penh,11.558831,104.917445,2,48,118,76
16268,1.99707E+11,1997.583333,1997,7,8,6,India,Bhatinda,30.210994,74.945474,3,39,67,50.2
16334,1.99707E+11,1997.583333,1997,7,14,10,Algeria,Algiers,36.7525,3.04197,3,21,40,28.6
16419,1.99707E+11,1997.583333,1997,7,21,10,Algeria,Blida,36.480453,2.83388,2,47,0,28.2
16420,1.99707E+11,1997.583333,1997,7,21,10,Algeria,Blida,36.480453,2.83388,2,47,0,28.2
16440,1.99707E+11,1997.583333,1997,7,23,10,Algeria,Hayut,,,2,36,0,21.6
16464,1.99707E+11,1997.583333,1997,7,27,10,Algeria,Larba,36.56522,3.153934,3,44,0,26.4
16473,1.99707E+11,1997.583333,1997,7,29,10,Algeria,Metmata,33.454186,9.768991,2,45,0,27
16478,1.99707E+11,1997.583333,1997,7,30,10,Israel,Jerusalem,31.766496,35.21172,3,15,170,77
16484,1.99707E+11,1997.583333,1997,7,30,11,Uganda,Kampala,0.350848,32.580224,3,8,40,20.8
16485,1.99707E+11,1997.583333,1997,7,30,11,Uganda,Kampala,0.350848,32.580224,3,8,40,20.8
16494,1.99707E+11,1997.583333,1997,7,31,10,Algeria,Sidi el Madani,35.26816,-1.51178,2,38,12,27.6
16517,1.99708E+11,1997.666667,1997,8,3,10,Algeria,Ain Defla,36.2664,1.961003,9,76,0,45.6
16613,1.99708E+11,1997.666667,1997,8,12,10,Iran,Nayriz,29.200444,54.32597,7,2,51,21.6
16614,1.99708E+11,1997.666667,1997,8,12,10,Iran,Nayriz,29.200444,54.32597,7,2,51,21.6
16712,1.99708E+11,1997.666667,1997,8,21,11,Rwanda,Gisenyi,-1.679123,29.261201,2,124,0,74.4
16715,1.99708E+11,1997.666667,1997,8,21,10,Algeria,Souhane,36.511808,3.19924,2,64,0,38.4
16780,1.99708E+11,1997.666667,1997,8,25,10,Algeria,Algiers,36.752887,3.042048,3,4,49,22
16798,1.99708E+11,1997.666667,1997,8,27,11,Somalia,Baidoa,3.120033,43.650184,9,17,29,21.8
16815,1.99708E+11,1997.666667,1997,8,28,10,Algeria,Sidi Rais,36.612427,3.124495,2,256,194,231.2
16861,1.99709E+11,1997.75,1997,9,3,5,Philippines,Manila,14.596051,120.978666,3,3,60,25.8
16862,1.99709E+11,1997.75,1997,9,3,5,Philippines,Manila,14.596051,120.978666,3,3,60,25.8
16869,1.99709E+11,1997.75,1997,9,4,10,Israel,Jerusalem,31.766496,35.21172,3,7,192,81
16877,1.99709E+11,1997.75,1997,9,5,10,Algeria,Beni Messous,36.783146,2.983242,2,50,60,54
16909,1.99709E+11,1997.75,1997,9,9,6,Sri Lanka,Pulmoddai,8.941674,80.986695,3,37,10,26.2
17004,1.99709E+11,1997.75,1997,9,18,6,Bangladesh,Dhaka,23.811388,90.412106,3,0,101,40.4
17032,1.99709E+11,1997.75,1997,9,21,10,Algeria,Beni Slimane,36.34889,2.75472,9,53,0,31.8
17036,1.99709E+11,1997.75,1997,9,22,10,Algeria,Baraki,36.66655,3.09606,2,85,67,77.8
17083,1.99709E+11,1997.75,1997,9,28,10,Algeria,Chebli,36.577409,3.011017,2,48,0,28.8
17098,1.99709E+11,1997.75,1997,9,30,10,Algeria,Chebli,36.577409,3.011017,2,52,0,31.2
17124,1.9971E+11,1997.833333,1997,10,3,10,Algeria,Mahelma,36.680836,2.875486,2,38,0,22.8
17125,1.9971E+11,1997.833333,1997,10,3,10,Algeria,Blida,36.480453,2.83388,3,12,85,41.2
17199,1.9971E+11,1997.833333,1997,10,12,11,Burundi,Karinzi V.,,,3,22,39,28.8
17204,1.9971E+11,1997.833333,1997,10,13,10,Algeria,Maghnin,34.854797,-1.731727,2,41,15,30.6
17211,1.9971E+11,1997.833333,1997,10,14,11,Rwanda,Mutura,-1.587877,29.381578,9,37,14,27.8
17215,1.9971E+11,1997.833333,1997,10,15,6,Sri Lanka,Colombo,6.927079,79.861243,3,18,105,52.8
17216,1.9971E+11,1997.833333,1997,10,15,6,Sri Lanka,Colombo,6.927079,79.861243,3,18,105,52.8
17351,1.9971E+11,1997.833333,1997,10,27,11,Burundi,Teza,-3.209682,29.563585,3,9,47,24.2
17421,1.99711E+11,1997.916667,1997,11,7,10,Iraq,Sidakan,36.803372,44.663587,9,57,0,34.2
17496,1.99711E+11,1997.916667,1997,11,17,11,Rwanda,Gisenyi,-1.679123,29.261201,9,300,0,180
17502,1.99711E+11,1997.916667,1997,11,17,10,Egypt,Luxor,25.699433,32.644441,2,58,0,34.8
17520,1.99711E+11,1997.916667,1997,11,19,6,India,Hyderabad,17.376812,78.487812,3,23,31,26.2
17588,1.99711E+11,1997.916667,1997,11,29,6,Bangladesh,Chittagong,22.347537,91.812332,2,3,80,33.8
17589,1.99711E+11,1997.916667,1997,11,30,6,India,New Delhi,28.632381,77.220004,3,2,58,24.4
17590,1.99711E+11,1997.916667,1997,11,30,6,India,New Delhi,28.632381,77.220004,3,2,58,24.4
17600,1.99712E+11,1998,1997,12,1,6,India,Bathe-Lakshmanpur,,,2,60,0,36
17642,1.99712E+11,1998,1997,12,5,6,India,Churanchandpur,24.346092,93.699904,2,25,15,21
17653,1.99712E+11,1998,1997,12,6,6,India,Thottipalayam,11.079703,77.175836,3,10,75,36
17654,1.99712E+11,1998,1997,12,6,6,India,Thottipalayam,11.079703,77.175836,3,10,75,36
17655,1.99712E+11,1998,1997,12,6,6,India,Thottipalayam,11.079703,77.175836,3,10,75,36
17695,1.99712E+11,1998,1997,12,10,11,Rwanda,Mutura,-1.587877,29.381578,2,271,227,253.4
17743,1.99712E+11,1998,1997,12,17,3,Colombia,Pavarando,7.276111,-76.562222,2,40,0,24
17744,1.99712E+11,1998,1997,12,17,3,Colombia,Pavarando,7.276111,-76.562222,2,40,0,24
17745,1.99712E+11,1998,1997,12,17,3,Colombia,Pavarando,7.276111,-76.562222,2,40,0,24
17746,1.99712E+11,1998,1997,12,17,3,Colombia,Pavarando,7.276111,-76.562222,2,40,0,24
17747,1.99712E+11,1998,1997,12,17,3,Colombia,Pavarando,7.276111,-76.562222,2,40,0,24
17748,1.99712E+11,1998,1997,12,17,3,Colombia,Pavarando,7.276111,-76.562222,2,40,0,24
17749,1.99712E+11,1998,1997,12,17,3,Colombia,Pavarando,7.276111,-76.562222,2,40,0,24
17756,1.99712E+11,1998,1997,12,18,10,Algeria,Larba,36.56522,3.153934,2,31,17,25.4
17760,1.99712E+11,1998,1997,12,19,11,Rwanda,Gisenyi,-1.679123,29.261201,9,54,0,32.4
17780,1.99712E+11,1998,1997,12,22,1,Mexico,Acteal,16.9878,-92.5186,2,45,0,27
17842,1.99712E+11,1998,1997,12,29,11,Somalia,Hudur,4.123091,43.890845,2,25,35,29
17857,1.99712E+11,1998,1997,12,30,10,Algeria,Kherarba,36.200833,1.733611,2,206,0,123.6
17859,1.99712E+11,1998,1997,12,30,10,Algeria,Oued Rhiou,35.961111,0.918889,2,206,0,123.6
17868,1.99801E+11,1998.083333,1998,1,1,11,Burundi,Bujumbura,-3.318463,29.321132,2,104,6,64.8
17878,1.99801E+11,1998.083333,1998,1,5,11,Rwanda,Gitarama,-2.080109,29.75988,2,56,2,34.4
17905,1.99801E+11,1998.083333,1998,1,17,11,Burundi,Bujumbura,-3.382942,29.367103,2,32,12,24
17975,1.99802E+11,1998.166667,1998,2,12,11,Burundi,Minago,-3.805833,29.348611,2,25,46,33.4
17985,1.99802E+11,1998.166667,1998,2,15,6,Sri Lanka,Mankulam,9.136988,80.445169,3,20,115,58
18016,1.99802E+11,1998.166667,1998,2,21,10,Algeria,El Affroun,36.46748,2.622849,3,18,25,20.8
18054,1.99803E+11,1998.25,1998,3,5,6,Sri Lanka,Colombo,6.927079,79.861243,3,37,260,126.2
18077,1.99803E+11,1998.25,1998,3,14,6,Sri Lanka,Mankulam,9.136988,80.445169,3,30,100,58
18103,1.99803E+11,1998.25,1998,3,29,11,Rwanda,Ruhengeri District,-1.503763,29.632642,2,20,42,28.8
18194,1.99805E+11,1998.416667,1998,5,8,4,China,Ghulja,43.977138,81.527454,8,0,150,60
18224,1.99805E+11,1998.416667,1998,5,22,10,Algeria,Algiers,36.752887,3.042048,3,16,60,33.6
18226,1.99805E+11,1998.416667,1998,5,27,10,Algeria,Unknown,36.480499,2.833905,3,11,50,26.6
18236,1.99806E+11,1998.5,1998,6,5,6,Pakistan,Tando Masti,27.439135,68.644449,3,23,32,26.6
18281,1.99807E+11,1998.583333,1998,7,9,10,Algeria,Algiers,36.752887,3.042048,3,13,42,24.6
18431,1.99808E+11,1998.666667,1998,8,7,11,Kenya,Nairobi,-1.28518,36.821107,3,224,4000,1734.4
18432,1.99808E+11,1998.666667,1998,8,7,11,Tanzania,Dar es Salaam,-6.829574,39.259342,3,11,85,40.6
18453,1.99808E+11,1998.666667,1998,8,15,8,United Kingdom,Omagh,54.600305,-7.298402,3,29,220,105.4
18463,1.99808E+11,1998.666667,1998,8,20,10,Algeria,El Khemis,36.350833,1.682222,3,13,39,23.4
18483,1.99808E+11,1998.666667,1998,8,24,11,Democratic Republic of the Congo,Kasika,-2.922783,28.525221,2,37,0,22.2
18497,1.99808E+11,1998.666667,1998,8,31,10,Algeria,Algiers,36.752887,3.042048,3,17,60,34.2
18503,1.99809E+11,1998.75,1998,9,5,9,Russia,Makhachkala,42.978368,47.491066,3,17,80,42.2
18535,1.99809E+11,1998.75,1998,9,18,10,Algeria,Tiaret,35.37849,1.32569,3,22,30,25.2
18580,1.9981E+11,1998.833333,1998,10,5,10,Algeria,Muaskar,35.400169,0.139852,3,3,62,26.6
18636,1.9981E+11,1998.833333,1998,10,18,3,Colombia,Segovia,7.08071,-74.70101,3,48,100,68.8
18665,1.9981E+11,1998.833333,1998,10,28,11,Burundi,Kanyosha,-3.403703,29.40827,2,36,20,29.6
18707,1.99811E+11,1998.916667,1998,11,9,11,Sierra Leone,Samaya,9.350089,-11.706829,8,96,12,62.4
18779,1.99812E+11,1999,1998,12,8,10,Algeria,Tadjena,36.325456,1.137701,2,42,0,25.2
18783,1.99812E+11,1999,1998,12,18,6,India,New Delhi,28.632381,77.220004,1,7,47,23
18804,1.99901E+11,1999.083333,1999,1,2,5,Philippines,Jolo,6.05519,121.001323,3,10,74,35.6
18808,1.99901E+11,1999.083333,1999,1,4,6,Pakistan,Karamdad Qureshi,30.390635,71.003269,2,17,25,20.2
18817,1.99901E+11,1999.083333,1999,1,5,6,Pakistan,Karamdad Qureshi,30.390635,71.003269,2,19,25,21.4
18956,1.99903E+11,1999.25,1999,3,7,6,Bangladesh,Jessore,23.163957,89.213004,3,8,150,64.8
19031,1.99903E+11,1999.25,1999,3,18,6,India,Sinari,25.096074,85.313119,2,32,6,21.6
19036,1.99903E+11,1999.25,1999,3,19,9,Russia,Vladikavkaz,43.047456,44.665806,3,64,104,80
19113,1.99904E+11,1999.333333,1999,4,1,11,Angola,Malange,-9.546402,16.338054,2,47,83,61.4
19159,1.99904E+11,1999.333333,1999,4,15,5,Philippines,Liguan,13.24175,124.041936,3,14,30,20.4
19412,1.99906E+11,1999.5,1999,6,19,11,Angola,Caala,-12.850607,15.560244,2,30,16,24.4
19415,1.99906E+11,1999.5,1999,6,19,11,Nigeria,Unknown,7.73173,10.816375,2,100,200,140
19421,1.99906E+11,1999.5,1999,6,20,11,Angola,Huambo,-12.765538,15.732861,3,3,100,41.8
19431,1.99906E+11,1999.5,1999,6,22,6,India,Shiliguri,26.682957,88.443417,3,10,80,38
19443,1.99906E+11,1999.5,1999,6,24,4,China,Chengdu,30.658601,104.064856,3,1,50,20.6
19644,1.99908E+11,1999.666667,1999,8,4,6,Sri Lanka,Veppankulam,8.792316,80.466026,3,15,30,21
19651,1.99908E+11,1999.666667,1999,8,5,10,Algeria,Unknown,,,3,6,61,28
19754,1.99909E+11,1999.75,1999,9,4,9,Russia,Buynaksk,42.816667,47.116667,3,64,100,78.4
19771,1.99909E+11,1999.75,1999,9,9,9,Russia,Pechatniki,55.697774,37.718389,3,90,180,126
19783,1.99909E+11,1999.75,1999,9,16,9,Russia,Volgodonsk,47.516667,42.15,3,17,184,83.8
19804,1.99909E+11,1999.75,1999,9,23,6,Sri Lanka,Batticaloa,7.716666,81.700188,3,18,30,22.8
20045,1.99911E+11,1999.916667,1999,11,11,6,India,Kandrori,32.184316,75.669148,3,11,100,46.6
20046,1.99911E+11,1999.916667,1999,11,11,3,Colombia,Bogota,4.597909,-74.076086,3,8,45,22.8
20062,1.99911E+11,1999.916667,1999,11,13,3,Colombia,Bogota,4.5981,-74.07603,3,8,45,22.8
20063,1.99911E+11,1999.916667,1999,11,13,6,India,Kandrori,32.184316,75.669148,3,12,51,27.6
20151,1.99912E+11,2000,1999,12,12,3,Colombia,Jurado,7.10577,-77.76488,8,65,0,39
20158,1.99912E+11,2000,1999,12,13,6,Sri Lanka,Chavakachcheri,9.659069,80.131693,3,1,99,40.2
20165,1.99912E+11,2000,1999,12,18,6,Sri Lanka,Colombo,6.927079,79.861243,3,15,110,53
20166,1.99912E+11,2000,1999,12,18,6,Sri Lanka,Ja-Ela,7.079678,79.890976,3,8,40,20.8
20179,1.99912E+11,2000,1999,12,24,10,Algeria,Khemis Miliana,36.266667,2.216667,2,28,10,20.8
20230,2.00001E+11,2000.083333,2000,1,3,6,India,Srinagar,34.083658,74.797368,3,18,30,22.8
20308,2.00001E+11,2000.083333,2000,1,16,11,Uganda,Bundibugyo,0.707531,30.063635,2,24,15,20.4
20351,2.00001E+11,2000.083333,2000,1,27,6,Sri Lanka,Vavuniya,8.738157,80.477147,3,11,73,35.8
20480,2.00002E+11,2000.166667,2000,2,25,5,Philippines,Kolambugan,8.115408,123.896522,3,44,50,46.4
20525,2.00003E+11,2000.25,2000,3,10,6,Sri Lanka,Colombo,6.910912,79.887803,2,22,47,32
20552,2.00003E+11,2000.25,2000,3,17,11,Uganda,Kasese,0.066857,30.065281,8,200,0,120
20560,2.00003E+11,2000.25,2000,3,21,6,India,Chadisinghpoora,33.778175,76.576171,2,35,1,21.4
20700,2.00005E+11,2000.416667,2000,5,3,10,Algeria,Unknown,36.053486,2.937574,2,23,21,22.2
20748,2.00005E+11,2000.416667,2000,5,17,6,Sri Lanka,Batticaloa,7.716666,81.700188,3,17,75,40.2
20749,2.00005E+11,2000.416667,2000,5,17,6,Sri Lanka,Batticaloa,7.716666,81.700188,3,29,80,49.4
20802,2.00005E+11,2000.416667,2000,5,28,5,Indonesia,Medan,3.585242,98.675598,3,0,60,24
20853,2.00006E+11,2000.5,2000,6,5,6,Sri Lanka,Vadamarachchi,9.7,80.316667,3,34,0,20.4
20931,2.00006E+11,2000.5,2000,6,16,10,Algeria,Mascara,35.391899,0.138188,3,13,42,24.6
20991,2.00007E+11,2000.583333,2000,7,2,9,Russia,Argun,43.3,45.866667,3,50,81,62.4
21145,2.00008E+11,2000.666667,2000,8,1,6,India,Pahalgam,34.016075,75.31498,2,35,94,58.6
21165,2.00008E+11,2000.666667,2000,8,8,9,Russia,Moscow,55.75,37.616667,3,12,94,44.8
21190,2.00008E+11,2000.666667,2000,8,14,6,India,Razabad,25.892778,81.043889,3,11,40,22.6
21264,2.00009E+11,2000.75,2000,9,1,11,Guinea,Massadou,8.381439,-9.432121,2,47,29,39.8
21405,2.00009E+11,2000.75,2000,9,19,6,Pakistan,Islamabad,33.708988,73.053857,3,16,60,33.6
21434,2.00009E+11,2000.75,2000,9,24,6,Nepal,Dunai Bazaar,28.932032,82.900035,3,14,40,24.4
21447,2.00009E+11,2000.75,2000,9,25,6,Nepal,Dunai Bazaar,28.932032,82.900035,6,14,40,24.4
21500,2.0001E+11,2000.833333,2000,10,1,7,Tajikistan,Dushanbe,38.536667,68.78,3,7,70,32.2
21502,2.0001E+11,2000.833333,2000,10,2,6,Sri Lanka,Jaffna district,9.66123,80.02558,1,23,50,33.8
21509,2.0001E+11,2000.833333,2000,10,5,6,Sri Lanka,Medawachchiya,8.53839,80.49328,3,12,45,25.2
21524,2.0001E+11,2000.833333,2000,10,10,11,Uganda,Gulu,2.771679,32.288421,3,9,60,29.4
21533,2.0001E+11,2000.833333,2000,10,12,10,Yemen,Aden,12.790058,44.983199,3,19,38,26.6
21632,2.0001E+11,2000.833333,2000,10,23,6,Sri Lanka,Trincomalee,8.5922,81.196796,3,24,43,31.6
21708,2.00011E+11,2000.916667,2000,11,11,9,Russia,Nizhniye Kurchali,42.9328557,46.25656796,2,36,53,42.8
21730,2.00011E+11,2000.916667,2000,11,14,11,Angola,Catala,-12.501957,17.283056,6,19,30,23.4
21870,2.00012E+11,2001,2000,12,6,3,Colombia,Granada,6.1429,-75.18417,6,29,15,23.4
21871,2.00012E+11,2001,2000,12,7,6,India,Tinsukia district,27.491929,95.347833,2,26,16,22
21875,2.00012E+11,2001,2000,12,8,11,Sudan,Garaffa,15.715222,32.493188,2,21,40,28.6
21880,2.00012E+11,2001,2000,12,9,9,Russia,Alkhan-Yurt,43.230385,45.560431,3,21,21,21
22060,2.00101E+11,2001.083333,2001,1,10,3,Colombia,Medellin,6.204167,-75.553871,3,1,51,21
22257,2.00102E+11,2001.166667,2001,2,16,9,Kosovo,Podujevo,42.90555036,21.16810073,3,10,43,23.2
22398,2.00103E+11,2001.25,2001,3,16,4,China,Shijiazhuang,38.042307,114.51486,3,18,28,22
22440,2.00103E+11,2001.25,2001,3,24,9,Russia,Mineralnye Vody,44.216667,43.133333,3,18,86,45.2
22479,2.00103E+11,2001.333333,2001,4,1,6,Sri Lanka,Kurunegala,7.488566,80.365159,3,11,150,66.6
22480,2.00104E+11,2001.333333,2001,4,1,6,Bangladesh,Dhaka,23.811388,90.412106,3,1,50,20.6
22481,2.00104E+11,2001.333333,2001,4,1,6,Sri Lanka,Kurunegala,7.488566,80.365159,3,11,150,66.6
22484,2.00104E+11,2001.333333,2001,4,2,6,Nepal,Rukumkot,28.594129,82.609974,6,35,14,26.6
22561,2.00104E+11,2001.333333,2001,4,22,10,Israel,Kefar Sava,32.178344,34.907985,3,2,50,21.2
22610,2.00105E+11,2001.416667,2001,5,5,11,Angola,Caxito,-8.579318,13.664153,6,95,20,65
22640,2.00105E+11,2001.416667,2001,5,17,3,Colombia,Medellin,6.208996,-75.568153,3,8,137,59.6
22657,2.00105E+11,2001.416667,2001,5,25,10,Israel,Hadera,32.434788,34.92157,3,2,60,25.2
22694,2.00106E+11,2001.5,2001,6,1,10,Israel,Tel Aviv,32.084844,34.784348,3,22,100,53.2
22699,2.00106E+11,2001.5,2001,6,2,5,Philippines,Lamitan,6.645556,122.101944,5,16,41,26
22714,2.00106E+11,2001.5,2001,6,8,6,India,Budgam,34.021244,74.722282,3,4,50,22.4
22739,2.00106E+11,2001.5,2001,6,16,6,Bangladesh,Narayanganj,23.618999,90.498032,3,21,100,52.6
22812,2.00107E+11,2001.583333,2001,7,18,11,Angola,Chinguvu,-7.379731,20.831416,2,70,15,48
22823,2.00107E+11,2001.583333,2001,7,22,5,Indonesia,Jakarta,-6.208821,106.846046,3,0,59,23.6
22971,2.00108E+11,2001.666667,2001,8,9,5,Indonesia,Idi Rayeuk Sub district,4.962522,97.752371,2,31,7,21.4
22978,2.00108E+11,2001.666667,2001,8,9,10,Israel,Jerusalem,31.779585,35.215919,3,16,130,61.6
23008,2.00108E+11,2001.666667,2001,8,11,11,Angola,Unknown,,,2,259,160,219.4
23166,2.00108E+11,2001.666667,2001,8,19,9,Russia,Astrakhan,46.35,48.05,3,6,50,23.6
23196,2.00108E+11,2001.666667,2001,8,21,6,Sri Lanka,Ampara,7.301756,81.67473,7,23,27,24.6
23262,2.00108E+11,2001.666667,2001,8,24,11,Angola,Cacolo,-9.510927,16.036371,7,50,12,34.8
23427,2.00109E+11,2001.75,2001,9,1,11,Angola,Sumbe,-11.200644,13.841627,2,32,52,40
23490,2.00109E+11,2001.75,2001,9,11,1,United States,Arlington,38.880777,-77.108273,4,189,106,155.8
23491,2.00109E+11,2001.75,2001,9,11,1,United States,Shanksville,40.018464,-78.907197,4,44,0,26.4
23512,2.00109E+11,2001.75,2001,9,16,6,Sri Lanka,Trincomalee,8.5922,81.196796,3,31,65,44.6
23544,2.00109E+11,2001.75,2001,9,25,6,India,Baghmara,26.515135,90.679677,3,0,100,40
23561,2.0011E+11,2001.833333,2001,10,1,6,India,Srinagar,34.083658,74.797368,3,31,60,42.6
23645,2.0011E+11,2001.833333,2001,10,28,5,Philippines,Zamboanga City,6.911604,122.082261,3,11,48,25.8
23680,2.00111E+11,2001.916667,2001,11,6,8,Spain,Madrid,40.416691,-3.700345,3,0,95,38
23694,2.00111E+11,2001.916667,2001,11,10,9,Russia,Vladikavkaz,43.047456,44.665806,3,6,43,20.8
23731,2.00111E+11,2001.916667,2001,11,18,6,India,Jammu district,32.726602,74.857026,2,16,29,21.2
23734,2.00111E+11,2001.916667,2001,11,19,5,Philippines,Unknown,6.05519,121.001323,2,52,40,47.2
23799,2.00112E+11,2002,2001,12,1,10,Israel,Jerusalem,31.768303,35.2118,3,10,171,74.4
23809,2.00112E+11,2002,2001,12,2,10,Israel,Haifa,32.793921,34.990615,3,16,38,24.8
24202,2.00203E+11,2002.25,2002,3,2,10,Israel,Jerusalem,31.767583,35.213208,3,11,60,30.6
24219,2.00203E+11,2002.25,2002,3,9,10,Israel,Jerusalem,31.766242,35.211817,3,12,50,27.2
24232,2.00203E+11,2002.25,2002,3,17,6,Pakistan,Islamabad,33.708988,73.053857,3,5,46,21.4
24246,2.00203E+11,2002.25,2002,3,21,10,Israel,Jerusalem,31.77936,35.215774,3,4,60,26.4
24266,2.00203E+11,2002.25,2002,3,27,10,Israel,Netanya,32.332612,34.851529,3,21,72,41.4
24280,2.00203E+11,2002.25,2002,3,31,10,Israel,Haifa,32.793921,34.990615,3,15,35,23
24301,2.00204E+11,2002.333333,2002,4,3,5,Indonesia,Ambon,-3.648426,128.16576,3,4,58,25.6
24310,2.00204E+11,2002.333333,2002,4,7,3,Colombia,Villavicencio,4.15127,-73.63872,3,12,70,35.2
24311,2.00204E+11,2002.333333,2002,4,8,6,Afghanistan,Jalalabad,34.434167,70.447778,3,10,80,38
24320,2.00204E+11,2002.333333,2002,4,11,10,Tunisia,Er Riadh,33.819136,10.855024,3,21,30,24.6
24328,2.00204E+11,2002.333333,2002,4,12,10,Israel,Jerusalem,31.784936,35.212719,3,7,50,24.2
24358,2.00204E+11,2002.333333,2002,4,21,5,Philippines,General Santos,6.112452,125.169187,3,14,45,26.4
24379,2.00204E+11,2002.333333,2002,4,26,11,Sudan,Unknown,5.069299,33.438353,2,60,0,36
24408,2.00205E+11,2002.416667,2002,5,2,3,Colombia,Bojaya,6.521111,-76.972222,3,119,80,103.4
24460,2.00205E+11,2002.416667,2002,5,7,10,Israel,Rishon le Zion,31.970343,34.793444,3,15,58,32.2
24480,2.00205E+11,2002.416667,2002,5,9,9,Russia,Kaspiysk,42.883333,47.633333,3,43,130,77.8
24511,2.00205E+11,2002.416667,2002,5,14,6,India,Jammu,32.65905,74.881414,2,34,45,38.4
24533,2.00205E+11,2002.416667,2002,5,20,10,Israel,Netanya,32.325073,34.854663,3,4,50,22.4
24545,2.00205E+11,2002.416667,2002,5,23,11,Zimbabwe,Nyazura,-18.714687,32.164671,8,7,47,23
24554,2.00205E+11,2002.416667,2002,5,27,10,Israel,Petah Tiqwa,32.084933,34.890149,3,3,50,21.8
24588,2.00206E+11,2002.5,2002,6,5,10,Israel,Megiddo,32.588358,35.186748,3,17,40,26.2
24619,2.00206E+11,2002.5,2002,6,14,6,Pakistan,Karachi,24.893379,67.028061,3,12,51,27.6
24630,2.00206E+11,2002.5,2002,6,17,10,Israel,Jerusalem,31.754684,35.211556,3,19,48,30.6
24675,2.00206E+11,2002.5,2002,6,27,6,Afghanistan,Spin Boldak,31.008056,66.398056,3,19,24,21
24725,2.00207E+11,2002.583333,2002,7,12,6,India,Jammu,32.726602,74.857026,2,27,35,30.2
24728,2.00207E+11,2002.583333,2002,7,13,6,India,Jammu,32.726602,74.857026,3,29,35,31.4
24771,2.00207E+11,2002.583333,2002,7,31,10,Israel,Jerusalem,31.794474,35.242188,3,7,80,36.2
24784,2.00208E+11,2002.666667,2002,8,1,10,Israel,Jerusalem,31.794474,35.242188,3,8,80,36.8
24796,2.00208E+11,2002.666667,2002,8,4,10,Israel,Haifa,32.793921,34.990615,3,10,40,22
24820,2.00208E+11,2002.666667,2002,8,7,3,Colombia,Bogota,4.597909,-74.076086,3,14,69,36
24833,2.00208E+11,2002.666667,2002,8,9,6,Afghanistan,Jalalabad,34.434167,70.447778,3,20,80,44
24929,2.00209E+11,2002.75,2002,9,5,6,Afghanistan,Kabul,34.533056,69.166111,3,10,65,32
24965,2.00209E+11,2002.75,2002,9,19,10,Israel,Tel Aviv,32.068605,34.771201,3,6,50,23.6
24979,2.00209E+11,2002.75,2002,9,24,6,India,Gandhinagar,23.229357,72.674105,3,33,70,47.8
24989,2.00209E+11,2002.75,2002,9,28,6,Bangladesh,Satkhira,22.718485,89.070477,3,1,90,36.6
25038,2.0021E+11,2002.833333,2002,10,12,5,Indonesia,Kuta,-8.722791,115.17229,3,101,150,120.6
25039,2.0021E+11,2002.833333,2002,10,12,5,Indonesia,Kuta,-8.722791,115.17229,3,101,150,120.6
25050,2.0021E+11,2002.833333,2002,10,17,5,Philippines,Zamboanga City,6.911412,122.077945,3,3,75,31.8
25051,2.0021E+11,2002.833333,2002,10,17,5,Philippines,Zamboanga City,6.911412,122.077945,3,3,75,31.8
25062,2.0021E+11,2002.833333,2002,10,22,10,Israel,Pardes Hanna,32.473605,34.975094,3,16,50,29.6
25153,2.00211E+11,2002.916667,2002,11,21,10,Israel,Jerusalem,31.766541,35.210989,3,12,47,26
25165,2.00211E+11,2002.916667,2002,11,24,6,India,Jammu,32.726602,74.857026,3,13,52,28.6
25202,2.00212E+11,2003,2002,12,7,6,Bangladesh,Mymemsingh,24.749201,90.402618,3,17,300,130.2
25208,2.00212E+11,2003,2002,12,9,3,Colombia,Bogota,4.625715,-74.089095,3,0,65,26
25244,2.00212E+11,2003,2002,12,27,9,Russia,Grozny,43.316667,45.683333,3,57,121,82.6
25281,2.00301E+11,2003.083333,2003,1,4,10,Algeria,Theniet El Abed,35.870833,2.028889,2,43,19,33.4
25298,2.00301E+11,2003.083333,2003,1,6,6,Afghanistan,Kandahar,31.617667,65.675942,3,13,50,27.8
25452,2.00302E+11,2003.166667,2003,2,2,11,Nigeria,Lagos,6.520917,3.379534,3,20,43,29.2
25466,2.00302E+11,2003.166667,2003,2,7,3,Colombia,Bogota,4.597909,-74.076086,3,32,162,84
25502,2.00302E+11,2003.166667,2003,2,14,3,Colombia,Neiva,2.93303,-75.285828,3,18,37,25.6
25568,2.00303E+11,2003.25,2003,3,4,5,Philippines,Davao City,7.131882,125.643465,3,24,150,74.4
25579,2.00303E+11,2003.25,2003,3,5,10,Israel,Haifa,32.793921,34.990615,3,15,55,31
25580,2.00303E+11,2003.25,2003,3,5,3,Colombia,Cucuta,7.894195,-72.503885,3,7,68,31.4
25632,2.00303E+11,2003.25,2003,3,13,6,India,Mumbai,19.075984,72.877656,3,11,64,32.2
25651,2.00303E+11,2003.25,2003,3,16,6,India,Bamungopha,26.372705,90.984023,3,7,54,25.8
25754,2.00304E+11,2003.333333,2003,4,2,5,Philippines,Davao City,7.096653,125.634543,3,16,55,31.6
25852,2.00305E+11,2003.416667,2003,5,4,5,Philippines,Siocon,7.708474,122.140274,2,18,34,24.4
25894,2.00305E+11,2003.416667,2003,5,10,5,Philippines,Koronadal,6.503167,124.840523,3,11,43,23.8
25901,2.00305E+11,2003.416667,2003,5,12,9,Russia,Znamenskoye,43.6753,45.1277,3,59,197,114.2
25914,2.00305E+11,2003.416667,2003,5,14,9,Russia,Ilaskhan-Yurt,43.277772,46.102834,1,19,78,42.6
26015,2.00306E+11,2003.5,2003,6,11,10,Israel,Jerusalem,31.785981,35.212992,3,17,75,40.2
26043,2.00306E+11,2003.5,2003,6,23,6,India,Shopian,33.717003,74.836092,3,2,48,20.4
26069,2.00307E+11,2003.583333,2003,7,4,6,Pakistan,Quetta,30.182125,67.000517,3,53,53,53
26073,2.00307E+11,2003.583333,2003,7,5,10,Iraq,Ramadi,33.431899,43.311566,3,7,40,20.2
26138,2.00307E+11,2003.583333,2003,7,21,6,India,Katra,32.991496,74.931817,3,7,42,21
26172,2.00308E+11,2003.666667,2003,8,1,9,Russia,Mozdok,43.75,44.65,3,40,76,54.4
26184,2.00308E+11,2003.666667,2003,8,5,5,Indonesia,Jakarta,-6.208821,106.846046,3,15,149,68.6
26187,2.00308E+11,2003.666667,2003,8,7,10,Iraq,Baghdad,33.3,44.4,3,11,57,29.4
26199,2.00308E+11,2003.666667,2003,8,19,10,Iraq,Baghdad,33.3,44.4,3,24,100,54.4
26200,2.00308E+11,2003.666667,2003,8,19,10,Israel,Jerusalem,31.768618,35.215053,3,19,100,51.4
26203,2.00308E+11,2003.666667,2003,8,25,6,India,Mumbai,19.075984,72.877656,3,52,150,91.2
26206,2.00308E+11,2003.666667,2003,8,29,10,Iraq,Najaf,32.000596,44.330818,3,100,200,140
26216,2.00309E+11,2003.75,2003,9,4,9,Russia,Pyatigorsk,44.050154,43.05102,3,6,44,21.2
26233,2.00309E+11,2003.75,2003,9,10,10,Iraq,Arbil,36.191107,44.009101,3,4,53,23.6
26274,2.00309E+11,2003.75,2003,9,28,3,Colombia,Florencia,1.61456,-75.6053,3,11,48,25.8
26293,2.0031E+11,2003.833333,2003,10,4,10,Israel,Haifa,32.793921,34.990615,3,23,50,33.8
26301,2.0031E+11,2003.833333,2003,10,9,10,Iraq,Baghdad,33.3,44.4,3,9,45,23.4
26310,2.0031E+11,2003.833333,2003,10,13,11,Uganda,Abako,2.144592,33.223684,2,20,22,20.8
26323,2.0031E+11,2003.833333,2003,10,20,6,India,Srinagar,34.069935,74.793683,3,2,58,24.4
26332,2.0031E+11,2003.833333,2003,10,27,10,Iraq,Baghdad,33.260981,44.353256,3,12,78.67,38.668
26333,2.0031E+11,2003.833333,2003,10,27,10,Iraq,Baghdad,33.268315,44.34494,3,16,78.67,41.068
26363,2.00311E+11,2003.916667,2003,11,8,10,Saudi Arabia,Riyadh,24.64732,46.714581,3,17,122,59
26377,2.00311E+11,2003.916667,2003,11,12,10,Iraq,Nasiriyah,31.05,46.266667,3,27,80,48.2
26382,2.00311E+11,2003.916667,2003,11,14,10,Turkey,Istanbul,41.027247,28.972262,3,11,151,67
26383,2.00311E+11,2003.916667,2003,11,14,10,Turkey,Istanbul,41.114687,29.01534,3,11,151,67
26389,2.00311E+11,2003.916667,2003,11,17,4,South Korea,Buan,35.731566,126.733465,2,0,60,24
26405,2.00311E+11,2003.916667,2003,11,20,10,Turkey,Istanbul,41.033814,28.97609,3,16,224,99.2
26406,2.00311E+11,2003.916667,2003,11,20,10,Turkey,Istanbul,41.008368,28.979022,3,16,224,99.2
26464,2.00312E+11,2004,2003,12,5,9,Russia,Yessentuki,44.033333,42.85,3,47,170,96.2
26501,2.00312E+11,2004,2003,12,24,10,Iraq,Arbil,36.191111,44.009167,3,4,101,42.8
26503,2.00312E+11,2004,2003,12,25,6,Pakistan,Rawalpindi,33.600399,73.043426,1,15,46,27.4
26519,2.00401E+11,2004.083333,2004,1,4,5,Philippines,Parang,7.374077,124.266678,1,22,70,41.2
26526,2.00401E+11,2004.083333,2004,1,6,6,Afghanistan,Kandahar,31.617667,65.675942,3,15,30,21
26571,2.00401E+11,2004.083333,2004,1,18,10,Iraq,Baghdad,33.320118,44.400986,3,25,100,55
26585,2.00401E+11,2004.083333,2004,1,29,10,Israel,Jerusalem,31.768618,35.215053,3,11,50,26.6
26589,2.00401E+11,2004.083333,2004,1,31,10,Iraq,Mosul,36.34,43.13,3,10,45,24
26593,2.00402E+11,2004.166667,2004,2,1,10,Iraq,Arbil,36.191107,44.009101,3,50,133.5,83.4
26594,2.00402E+11,2004.166667,2004,2,1,10,Iraq,Arbil,36.191107,44.009101,3,50,133.5,83.4
26597,2.00402E+11,2004.166667,2004,2,5,11,Uganda,Lira,2.258083,32.887407,2,56,70,61.6
26598,2.00402E+11,2004.166667,2004,2,6,9,Russia,Zamoskvorechye,55.732666,37.637248,3,40,122,72.8
26601,2.00402E+11,2004.166667,2004,2,10,10,Iraq,Iskandariyah,32.88504,44.348,3,71,150,102.6
26621,2.00402E+11,2004.166667,2004,2,18,10,Iraq,Hillah,32.483333,44.433333,3,12,100,47.2
26628,2.00402E+11,2004.166667,2004,2,22,10,Israel,Jerusalem,31.766541,35.210989,3,8,60,28.8
26630,2.00402E+11,2004.166667,2004,2,23,10,Iraq,Kirkuk,35.46883,44.39098,3,10,52,26.8
26638,2.00403E+11,2004.25,2004,3,2,10,Iraq,Karbala,32.614481,44.024968,3,110,233,159.2
26640,2.00403E+11,2004.25,2004,3,2,10,Iraq,Baghdad,33.381146,44.34494,3,58,167,101.6
26641,2.00403E+11,2004.25,2004,3,2,6,Pakistan,Quetta,30.182125,67.000517,2,44,130,78.4
26643,2.00403E+11,2004.25,2004,3,2,6,Nepal,Bhojpur,29.716389,80.770278,2,41,12,29.4
26669,2.00403E+11,2004.25,2004,3,11,8,Spain,Madrid,40.416691,-3.700345,3,37,450,202.2
26671,2.00403E+11,2004.25,2004,3,11,8,Spain,Madrid,40.416691,-3.700345,3,73,450,223.8
26672,2.00403E+11,2004.25,2004,3,11,8,Spain,Madrid,40.416691,-3.700345,3,19,450,191.4
26675,2.00403E+11,2004.25,2004,3,11,8,Spain,Madrid,40.416691,-3.700345,3,62,450,217.2
26682,2.00403E+11,2004.25,2004,3,17,10,Iraq,Baghdad,33.3,44.4,3,28,45,34.8
26692,2.00403E+11,2004.25,2004,3,21,6,Nepal,Dhading district,27.959441,84.895897,2,518,216,397.2
26730,2.00404E+11,2004.333333,2004,4,5,6,India,Pulwama,33.871517,74.89955,3,8,57,27.6
26781,2.00404E+11,2004.333333,2004,4,20,10,Iraq,Abu Ghraib,33.291944,44.065556,3,22,120,61.2
26788,2.00404E+11,2004.333333,2004,4,21,10,Iraq,Basra,30.5,47.816667,3,74,100,84.4
26792,2.00404E+11,2004.333333,2004,4,23,10,Saudi Arabia,Riyadh,24.64732,46.714581,3,5,145,61
26802,2.00404E+11,2004.333333,2004,4,24,10,Iraq,Baghdad,33.389934,44.460652,3,8,41,21.2
26828,2.00405E+11,2004.416667,2004,5,7,6,Pakistan,Karachi,24.893379,67.028061,3,18,100,50.8
26829,2.00405E+11,2004.416667,2004,5,9,9,Russia,Grozny,43.316667,45.683333,3,24,46,32.8
26831,2.00405E+11,2004.416667,2004,5,9,9,Russia,Grozny,43.316667,45.683333,1,4,53,23.6
26864,2.00405E+11,2004.416667,2004,5,21,6,Bangladesh,Sylhet,24.897778,91.871389,3,2,100,41.2
26873,2.00405E+11,2004.416667,2004,5,24,3,Colombia,Apartado,7.882318,-76.630626,3,6,82,36.4
26890,2.00405E+11,2004.416667,2004,5,29,10,Saudi Arabia,Khobar,26.218399,50.195902,5,22,26,23.6
26915,2.00406E+11,2004.5,2004,6,3,10,Algeria,Beni Ksila,36.8825,4.661944,9,10,45,24
26997,2.00406E+11,2004.5,2004,6,17,10,Iraq,Baghdad,33.3,44.4,3,35,145,79
27010,2.00406E+11,2004.5,2004,6,20,6,Bangladesh,Dhaka,23.811388,90.412106,3,0,70,28
27030,2.00406E+11,2004.5,2004,6,24,10,Iraq,Mosul,36.34,43.13,3,60,220,124
27036,2.00406E+11,2004.5,2004,6,26,10,Iraq,Baghdad,33.3,44.4,3,40,22,32.8
27071,2.00407E+11,2004.583333,2004,7,6,10,Iraq,Khalis,33.851043,44.519491,3,9,37,20.2
27154,2.00407E+11,2004.583333,2004,7,28,10,Iraq,Baqubah,33.75,44.633333,3,70,56,64.4
27163,2.00407E+11,2004.583333,2004,7,30,6,Pakistan,Fateh Jang,33.565614,72.643393,3,9,50,25.4
27177,2.00408E+11,2004.666667,2004,8,1,10,Iraq,Mosul,36.34,43.13,3,5,51,23.4
27251,2.00408E+11,2004.666667,2004,8,24,9,Russia,Rostov-on-Don,47.23638273,39.57993287,4,46,0,27.6
27252,2.00408E+11,2004.666667,2004,8,24,9,Russia,Gluboky,54.08086487,36.42233276,3,44,0,26.4
27265,2.00408E+11,2004.666667,2004,8,26,10,Iraq,Kufa,32.032916,44.399648,3,27,63,41.4
27290,2.00408E+11,2004.666667,2004,8,31,9,Russia,Meshchansky,55.778725,37.632337,3,11,50,26.6
27294,2.00409E+11,2004.75,2004,9,1,9,Russia,Beslan,43.191626,44.541763,2,344,727,497.2
27303,2.00409E+11,2004.75,2004,9,4,10,Iraq,Kirkuk,35.46883,44.39098,3,20,36,26.4
27308,2.00409E+11,2004.75,2004,9,5,9,Russia,Meshchansky,55.778725,37.632337,3,10,51,26.4
27314,2.00409E+11,2004.75,2004,9,9,5,Indonesia,Jakarta,-6.208821,106.846046,3,10,182,78.8
27331,2.00409E+11,2004.75,2004,9,14,10,Iraq,Baghdad,33.316633,44.399962,3,47,114,73.8
27352,2.00409E+11,2004.75,2004,9,18,10,Iraq,Kirkuk,35.46883,44.39098,3,21,67,39.4
27360,2.00409E+11,2004.75,2004,9,22,10,Iraq,Baghdad,33.32536,44.324684,3,8,53,26
27394,2.00409E+11,2004.75,2004,9,30,10,Iraq,Abu Ghraib,33.291944,44.065556,3,4,63,27.6
27397,2.00409E+11,2004.75,2004,9,30,10,Iraq,Baghdad,33.28131,44.326021,3,41,10,28.6
27398,2.0041E+11,2004.833333,2004,10,1,6,Pakistan,Sialkot,32.493537,74.530343,3,31,51,39
27405,2.0041E+11,2004.833333,2004,10,2,6,India,Dimapur,25.906267,93.72759,3,12,40,23.2
27412,2.0041E+11,2004.833333,2004,10,4,10,Iraq,Baghdad,33.308144,44.39391,3,15,81,41.4
27418,2.0041E+11,2004.833333,2004,10,6,10,Iraq,Anah,34.372222,41.9875,3,16,30,21.6
27422,2.0041E+11,2004.833333,2004,10,7,6,Pakistan,Multan,30.197843,71.467629,3,41,100,64.6
27423,2.0041E+11,2004.833333,2004,10,7,10,Egypt,Taba,29.492568,34.894903,3,34,159,84
27480,2.0041E+11,2004.833333,2004,10,19,10,Iraq,Mashahidah,33.634773,44.235244,3,6,100,43.6
27488,2.0041E+11,2004.833333,2004,10,23,10,Iraq,Al-Baghdadi,33.85,42.55,3,17,40,26.2
27490,2.0041E+11,2004.833333,2004,10,24,10,Iraq,Mandali,33.747758,45.552322,2,50,0,30
27556,2.00411E+11,2004.916667,2004,11,11,10,Iraq,Baghdad,33.3,44.4,3,18,30,22.8
27637,2.00412E+11,2005,2004,12,12,5,Philippines,General Santos,6.118078,125.172684,3,15,58,32.2
27651,2.00412E+11,2005,2004,12,19,10,Iraq,Najaf,32.000596,44.330818,3,62,130,89.2
27653,2.00412E+11,2005,2004,12,21,10,Iraq,Mosul,36.34,43.13,3,22,66,39.6
27659,2.00412E+11,2005,2004,12,23,2,Honduras,Chamelecon,15.43159,-88.015419,2,28,14,22.4
27664,2.00412E+11,2005,2004,12,27,10,Iraq,Baghdad,33.3,44.4,3,13,66,34.2
27666,2.00412E+11,2005,2004,12,28,10,Iraq,Baghdad,33.3,44.4,3,15,48,28.2
27667,2.00412E+11,2005,2004,12,29,10,Saudi Arabia,Riyadh,24.64732,46.714581,3,8,90,40.8
27669,2.00412E+11,2005,2004,12,29,10,Iraq,Baghdad,33.3,44.4,3,29,18,24.6
27671,2.00412E+11,2005,2004,12,29,10,Iraq,Mosul,36.34,43.13,3,26,15,21.6
27717,2.00501E+11,2005.083333,2005,1,5,10,Iraq,Unknown,,,3,13,33,21
27722,2.00501E+11,2005.083333,2005,1,5,10,Iraq,Hillah,32.483494,44.433269,3,11,41,23
27774,2.00501E+11,2005.083333,2005,1,16,5,Thailand,Yala,6.541102,101.280408,3,1,59,24.2
27816,2.00501E+11,2005.083333,2005,1,24,11,Sudan,Al-Malam,10.692441,24.329754,2,22,26,23.6
27828,2.00501E+11,2005.083333,2005,1,26,10,Iraq,Sinjar,36.321738,41.865884,3,15,30,21
27862,2.00502E+11,2005.166667,2005,2,8,10,Iraq,Baghdad,33.3,44.4,3,21,27,23.4
27879,2.00502E+11,2005.166667,2005,2,14,5,Philippines,Makati City,14.555141,121.023964,3,3,60,25.8
27887,2.00502E+11,2005.166667,2005,2,18,10,Iraq,Baghdad,33.38017,44.338207,3,15,33,22.2
27903,2.00502E+11,2005.166667,2005,2,24,10,Iraq,Tikrit,34.604447,43.685789,3,12,35,21.2
27911,2.00502E+11,2005.166667,2005,2,25,10,Israel,Tel Aviv,32.085305,34.785769,3,5,53,24.2
27916,2.00502E+11,2005.166667,2005,2,28,10,Iraq,Hillah,32.483333,44.433333,3,110,130,118
27926,2.00503E+11,2005.25,2005,3,2,10,Iraq,Baghdad,33.3,44.4,3,15,30,21
27973,2.00503E+11,2005.25,2005,3,10,10,Iraq,Mosul,36.34,43.13,3,47,80,60.2
28242,2.00504E+11,2005.333333,2005,4,14,10,Iraq,Baghdad,33.308137,44.393925,3,20,24,21.6
28325,2.00505E+11,2005.416667,2005,5,1,10,Iraq,Tal Afar,36.374029,42.451435,3,25,30,27
28338,2.00505E+11,2005.416667,2005,5,3,11,Somalia,Mogadishu,2.067681,45.335575,1,15,40,25
28346,2.00505E+11,2005.416667,2005,5,4,10,Iraq,Arbil,36.191111,44.009167,3,60,150,96
28361,2.00505E+11,2005.416667,2005,5,6,10,Iraq,Suwayrah,32.925266,44.770956,3,59,44,53
28367,2.00505E+11,2005.416667,2005,5,7,5,Myanmar,Yangon,16.799582,96.150907,3,6.33,54,25.398
28368,2.00505E+11,2005.416667,2005,5,7,5,Myanmar,Yangon,16.799582,96.150907,3,6.33,54,25.398
28369,2.00505E+11,2005.416667,2005,5,7,5,Myanmar,Yangon,16.799582,96.150907,3,6.34,54,25.404
28372,2.00505E+11,2005.416667,2005,5,7,10,Iraq,Baghdad,33.327797,44.408454,3,22,35,27.2
28373,2.00505E+11,2005.416667,2005,5,7,10,Iraq,Hadithah,34.133066,42.383225,3,4,99,42
28404,2.00505E+11,2005.416667,2005,5,11,10,Iraq,Tikrit,34.604447,43.685789,3,28,60,40.8
28405,2.00505E+11,2005.416667,2005,5,11,10,Iraq,Hawijah,35.324817,43.766813,3,31,35,32.6
28406,2.00505E+11,2005.416667,2005,5,11,10,Iraq,Baghdad,33.3,44.4,3,4,99,42
28407,2.00505E+11,2005.416667,2005,5,11,10,Iraq,Baghdad,33.3,44.4,3,3,99,41.4
28414,2.00505E+11,2005.416667,2005,5,12,6,India,Srinagar,34.083658,74.797368,3,2,59,24.8
28416,2.00505E+11,2005.416667,2005,5,12,10,Iraq,Baghdad,33.3,44.4,1,1,99,40.2
28417,2.00505E+11,2005.416667,2005,5,12,10,Iraq,Baghdad,33.3,44.4,1,1,99,40.2
28419,2.00505E+11,2005.416667,2005,5,12,6,Afghanistan,Zarghon Shaher,34.120278,69.139167,7,0,99,39.6
28421,2.00505E+11,2005.416667,2005,5,12,10,Iraq,Baghdad,33.3,44.4,3,17,81,42.6
28497,2.00505E+11,2005.416667,2005,5,23,10,Iraq,Baghdad,33.389934,44.460652,3,8,110,48.8
28521,2.00505E+11,2005.416667,2005,5,27,6,Pakistan,Islamabad,33.708988,73.053857,3,20,100,52
28548,2.00505E+11,2005.416667,2005,5,30,10,Iraq,Hillah,32.483333,44.433333,3,34,108,63.6
28550,2.00505E+11,2005.416667,2005,5,30,10,Iraq,Hillah,32.483494,44.433269,3,27,128,67.4
28556,2.00506E+11,2005.5,2005,6,1,6,Afghanistan,Kandahar,31.617667,65.675942,3,21,52,33.4
28560,2.00506E+11,2005.5,2005,6,1,11,Ivory Coast,Duekoue,6.732651,-7.349203,2,41,64,50.2
28571,2.00506E+11,2005.5,2005,6,5,11,Mauritania,Lemgheity,23.232778,-7.714722,2,23,20,21.8
28574,2.00506E+11,2005.5,2005,6,6,6,Nepal,Madi,27.412924,84.375233,3,53,72,60.6
28598,2.00506E+11,2005.5,2005,6,12,10,Iran,Ahvaz,31.285506,48.643416,3,8,85,38.8
28608,2.00506E+11,2005.5,2005,6,13,6,India,Pulwama,33.871517,74.89955,3,15,100,49
28612,2.00506E+11,2005.5,2005,6,14,10,Iraq,Kirkuk,35.46883,44.39098,3,20,65,38
28648,2.00506E+11,2005.5,2005,6,19,6,India,Kotrapali,21.868269,83.483025,2,8,100,44.8
28659,2.00506E+11,2005.5,2005,6,20,10,Iraq,Arbil,36.191111,44.009167,3,14,130,60.4
28673,2.00506E+11,2005.5,2005,6,23,10,Iraq,Baghdad,33.298668,44.422857,3,20,50,32
28711,2.00507E+11,2005.583333,2005,7,2,10,Iraq,Baghdad,33.308137,44.393925,3,20,21,20.4
28767,2.00507E+11,2005.583333,2005,7,7,8,United Kingdom,London,51.500152,-0.126236,3,8,171,73.2
28768,2.00507E+11,2005.583333,2005,7,7,8,United Kingdom,London,51.529888,-0.125127,3,27,340,152.2
28769,2.00507E+11,2005.583333,2005,7,7,8,United Kingdom,London,51.51986,-0.16781,3,7,163,69.4
28770,2.00507E+11,2005.583333,2005,7,7,8,United Kingdom,London,51.525483,-0.128843,3,14,110,52.4
28776,2.00507E+11,2005.583333,2005,7,7,10,Iraq,Mosul,36.34,43.13,3,3,64,27.4
28792,2.00507E+11,2005.583333,2005,7,10,10,Iraq,Baghdad,33.287345,44.319487,3,25,47,33.8
28829,2.00507E+11,2005.583333,2005,7,13,10,Iraq,Baghdad,33.3,44.4,3,29,70,45.4
28853,2.00507E+11,2005.583333,2005,7,16,10,Iraq,Musayib,32.778611,44.29,3,54,82,65.2
28896,2.00507E+11,2005.583333,2005,7,23,10,Egypt,Sharm el-Sheikh,27.915557,34.329886,3,91,110,98.6
28900,2.00507E+11,2005.583333,2005,7,24,10,Iraq,Baghdad,33.335265,44.39699,3,23,30,25.8
28949,2.00507E+11,2005.583333,2005,7,29,10,Iraq,Rabiaa,36.806417,42.092125,3,44,57,49.2
29090,2.00508E+11,2005.666667,2005,8,13,6,Bangladesh,Akhaura,23.868619,91.209729,3,1,80,32.6
29122,2.00508E+11,2005.666667,2005,8,17,6,Bangladesh,Unknown,,,3,2,100,41.2
29123,2.00508E+11,2005.666667,2005,8,17,10,Iraq,Baghdad,33.342742,44.40844,3,14.4,29.4,20.4
29124,2.00508E+11,2005.666667,2005,8,17,10,Iraq,Baghdad,33.342742,44.40844,3,14.3,29.3,20.3
29125,2.00508E+11,2005.666667,2005,8,17,10,Iraq,Baghdad,33.347622,44.410182,3,14.3,29.3,20.3
29188,2.00508E+11,2005.666667,2005,8,25,10,Iraq,Kut,32.505556,45.824722,2,36,0,21.6
29273,2.00509E+11,2005.75,2005,9,14,10,Iraq,Baghdad,33.381146,44.34494,3,160,542,312.8
29288,2.00509E+11,2005.75,2005,9,17,10,Iraq,Nahrwan,33.376952,44.70296,3,30,38,33.2
29338,2.00509E+11,2005.75,2005,9,29,10,Iraq,Balad,34.016389,44.145278,3,65,70,67
29347,2.0051E+11,2005.833333,2005,10,1,5,Indonesia,Jimbaran,-8.790422,115.159278,3,12.5,50,27.5
29348,2.0051E+11,2005.833333,2005,10,1,5,Indonesia,Kuta,-8.722791,115.17229,3,12.5,50,27.5
29367,2.0051E+11,2005.833333,2005,10,5,10,Iraq,Hillah,32.483494,44.433269,3,25,87,49.8
29384,2.0051E+11,2005.833333,2005,10,11,10,Iraq,Tal Afar,36.374029,42.451435,3,25,36,29.4
29401,2.0051E+11,2005.833333,2005,10,15,10,Iran,Ahvaz,31.285506,48.643416,3,4,102,43.2
29479,2.0051E+11,2005.833333,2005,10,29,6,India,New Delhi,28.632381,77.220004,3,55,155,95
29489,2.0051E+11,2005.833333,2005,10,31,10,Iraq,Basra,30.5,47.816667,3,20,50,32
29496,2.00511E+11,2005.916667,2005,11,2,10,Iraq,Musayib,32.778611,44.29,3,21,60,36.6
29507,2.00511E+11,2005.916667,2005,11,9,10,Jordan,Amman,31.950001,35.933331,3,20,33.33,25.332
29508,2.00511E+11,2005.916667,2005,11,9,10,Jordan,Amman,31.950001,35.933331,3,20,33.33,25.332
29509,2.00511E+11,2005.916667,2005,11,9,10,Jordan,Amman,31.950001,35.933331,3,21,33.34,25.936
29512,2.00511E+11,2005.916667,2005,11,10,10,Iraq,Baghdad,33.3,44.4,3,35,25,31
29531,2.00511E+11,2005.916667,2005,11,15,6,India,Tangmang,34.05998,74.424533,3,2,60,25.2
29540,2.00511E+11,2005.916667,2005,11,18,10,Iraq,Baghdad,33.2862,44.400616,3,8,43,22
29541,2.00511E+11,2005.916667,2005,11,18,10,Iraq,Khanaqin,34.333206,45.383492,3,77,90,82.2
29542,2.00511E+11,2005.916667,2005,11,19,10,Iraq,Abu Saydah,33.927271,44.773299,3,37,50,42.2
29555,2.00511E+11,2005.916667,2005,11,22,10,Iraq,Kirkuk,35.46883,44.39098,3,22,28,24.4
29558,2.00511E+11,2005.916667,2005,11,24,10,Iraq,Mahmudiyah,33.053656,44.362041,3,32,27,30
29564,2.00511E+11,2005.916667,2005,11,29,6,Bangladesh,Gazipur,24.092858,90.419022,3,7,50,24.2
29584,2.00512E+11,2006,2005,12,6,10,Iraq,Baghdad,33.3,44.4,3,36,72,50.4
29593,2.00512E+11,2006,2005,12,8,6,Bangladesh,Netrokona district,24.886101,90.729134,3,8,50,24.8
29712,2.00601E+11,2006.083333,2006,1,4,10,Iraq,Muqdadiyah,33.971348,44.92668,3,32,40,35.2
29713,2.00601E+11,2006.083333,2006,1,5,10,Iraq,Karbala,32.614481,44.024968,3,40,50,44
29717,2.00601E+11,2006.083333,2006,1,5,10,Iraq,Ramadi,33.431899,43.311566,3,30,40,34
29755,2.00601E+11,2006.083333,2006,1,16,6,Afghanistan,Spin Boldak,31.008056,66.398056,3,22,20,21.2
29783,2.00601E+11,2006.083333,2006,1,19,10,Iraq,Baghdad,33.3,44.4,3,23,26,24.2
29958,2.00601E+11,2006.083333,2006,1,30,11,Sudan,Al Fashir,13.62997,25.350198,2,22,18,20.4
29963,2.00601E+11,2006.083333,2006,1,31,6,Nepal,Tansen,27.86679,83.550091,2,24,17,21.2
29967,2.00602E+11,2006.166667,2006,2,1,10,Iraq,Baghdad,33.3,44.4,3,8,50,24.8
29987,2.00602E+11,2006.166667,2006,2,2,10,Iraq,Baghdad,33.318595,44.513997,3,9,57,28.2
30008,2.00602E+11,2006.166667,2006,2,3,6,Afghanistan,Sangin,32.073333,64.833889,2,19,23,20.6
30096,2.00602E+11,2006.166667,2006,2,9,6,Pakistan,Hangu,33.533541,71.057467,3,31,50,38.6
30154,2.00602E+11,2006.166667,2006,2,13,10,Iraq,Baghdad,33.3,44.4,3,11,40,22.6
30276,2.00602E+11,2006.166667,2006,2,21,10,Iraq,Baghdad,33.251563,44.391939,3,22,28,24.4
30312,2.00602E+11,2006.166667,2006,2,23,10,Iraq,Nahrwan,33.376952,44.70296,1,47,0,28.2
30353,2.00602E+11,2006.166667,2006,2,26,10,Iraq,Baghdad,33.3,44.4,3,16,45,27.6
30383,2.00602E+11,2006.166667,2006,2,28,6,India,Dantewada district,18.9,81.35,3,55,20,41
30385,2.00602E+11,2006.166667,2006,2,28,10,Iraq,Baghdad,33.354513,44.318924,3,23,55,35.8
30386,2.00602E+11,2006.166667,2006,2,28,10,Iraq,Baghdad,33.32855,44.481875,3,23,51,34.2
30399,2.00603E+11,2006.25,2006,3,1,10,Iraq,Baghdad,33.305081,44.488947,3,23,58,37
30404,2.00603E+11,2006.25,2006,3,2,6,Pakistan,Karachi,24.893379,67.028061,3,5,50,23
30439,2.00603E+11,2006.25,2006,3,7,6,India,Varanasi,25.317645,82.973914,3,20,100,52
30454,2.00603E+11,2006.25,2006,3,12,10,Iraq,Baghdad,33.3,44.4,3,62,250,137.2
30586,2.00604E+11,2006.333333,2006,4,3,10,Iraq,Baghdad,33.3,44.4,3,10,38,21.2
30667,2.00604E+11,2006.333333,2006,4,6,10,Iraq,Najaf,32.000596,44.330818,3,15,30,21
30768,2.00604E+11,2006.333333,2006,4,11,6,Pakistan,Karachi,24.893379,67.028061,3,57,125,84.2
30782,2.00604E+11,2006.333333,2006,4,12,10,Iraq,Huwaider,33.771944,44.621667,3,32,70,47.2
30892,2.00604E+11,2006.333333,2006,4,17,10,Israel,Tel Aviv,32.085305,34.785769,3,11,66,33
30910,2.00604E+11,2006.333333,2006,4,24,10,Egypt,Dahab,28.509136,34.513634,3,18,87,45.6
30947,2.00605E+11,2006.416667,2006,5,3,10,Iraq,Fallujah,33.35004,43.783488,3,16,30,21.6
30954,2.00605E+11,2006.416667,2006,5,4,10,Iraq,Baghdad,33.389934,44.460652,3,10,50,26
30981,2.00605E+11,2006.416667,2006,5,9,10,Iraq,Tal Afar,36.383333,42.45,3,18,35,24.8
31045,2.00605E+11,2006.416667,2006,5,16,10,Iraq,Baghdad,33.411752,44.432321,3,23,38,29
31072,2.00605E+11,2006.416667,2006,5,20,10,Iraq,Baghdad,33.389934,44.460652,3,19,36,25.8
31147,2.00606E+11,2006.5,2006,6,2,10,Iraq,Baghdad,33.3,44.4,3,4,57,25.2
31177,2.00606E+11,2006.5,2006,6,11,10,Iraq,Baghdad,33.298668,44.423197,3,6,59,27.2
31199,2.00606E+11,2006.5,2006,6,15,6,Sri Lanka,Vavuniya,8.738157,80.477147,3,64,80,70.4
31206,2.00606E+11,2006.5,2006,6,16,6,Sri Lanka,Anuradhapura district,8.345185,80.388133,3,63,71,66.2
31257,2.00606E+11,2006.5,2006,6,30,10,Iraq,Kirkuk,35.46883,44.39098,3,15,42,25.8
31264,2.00607E+11,2006.583333,2006,7,1,10,Iraq,Baghdad,33.38969,44.460568,3,77,96,84.6
31363,2.00607E+11,2006.583333,2006,7,6,10,Iraq,Kufa,32.032916,44.399648,3,14,38,23.6
31390,2.00607E+11,2006.583333,2006,7,7,10,Iraq,Tal Al-Banat,36.374029,42.451435,3,9,59,29
31407,2.00607E+11,2006.583333,2006,7,8,6,India,Unknown,33.778175,76.576171,3,5,45,21
31434,2.00607E+11,2006.583333,2006,7,11,6,India,Mumbai,19.075984,72.877656,3,188,817,439.6
31460,2.00607E+11,2006.583333,2006,7,16,10,Iraq,Tuz Khormato,34.890702,44.640683,3,26,22,24.4
31465,2.00607E+11,2006.583333,2006,7,17,10,Iraq,Mahmudiyah,33.053656,44.362041,2,56,67,60.4
31469,2.00607E+11,2006.583333,2006,7,18,10,Iraq,Kufa,32.032916,44.399648,3,59,132,88.2
31496,2.00607E+11,2006.583333,2006,7,23,10,Iraq,Baghdad,33.374136,44.440719,3,34,73,49.6
31506,2.00607E+11,2006.583333,2006,7,27,10,Iraq,Baghdad,33.298668,44.423197,3,31,150,78.6
31528,2.00608E+11,2006.666667,2006,8,1,10,Iraq,Baiji,34.929159,43.493025,3,23,40,29.8
31529,2.00608E+11,2006.666667,2006,8,1,10,Iraq,Baghdad,33.298668,44.423197,3,15,37,23.8
31604,2.00608E+11,2006.666667,2006,8,6,10,Iraq,Qadisiyah,34.471485,43.789052,3,15,30,21
31628,2.00608E+11,2006.666667,2006,8,8,10,Iraq,Baghdad,33.261663,44.334495,3,10,69,33.6
31644,2.00608E+11,2006.666667,2006,8,10,10,Iraq,Najaf,32.000596,44.330818,3,35,122,69.8
31657,2.00608E+11,2006.666667,2006,8,13,6,Sri Lanka,Allaipiddy,9.619888,79.965432,3,40,50,44
31667,2.00608E+11,2006.666667,2006,8,14,6,Sri Lanka,Colombo,6.927079,79.861243,3,61,150,96.6
31675,2.00608E+11,2006.666667,2006,8,16,6,India,Imphal,24.817011,93.936844,3,5,50,23
31731,2.00608E+11,2006.666667,2006,8,26,6,Bangladesh,Naogaon,24.804329,88.934251,3,15,30,21
31736,2.00608E+11,2006.666667,2006,8,28,10,Turkey,Antalya,36.886788,30.706222,3,4,65,28.4
31738,2.00608E+11,2006.666667,2006,8,28,6,Afghanistan,Lashkar Gah,31.583056,64.369167,3,17,50,30.2
31740,2.00608E+11,2006.666667,2006,8,28,10,Iraq,Baghdad,33.333448,44.429096,3,13,42,24.6
31743,2.00608E+11,2006.666667,2006,8,28,6,Afghanistan,Lashkar Gah,31.583056,64.369167,3,17,45,28.2
31745,2.00608E+11,2006.666667,2006,8,28,6,Sri Lanka,Trincomalee,8.5922,81.196796,3,35,106,63.4
31759,2.00608E+11,2006.666667,2006,8,30,10,Iraq,Hillah,32.483333,44.433333,3,12,38,22.4
31761,2.00608E+11,2006.666667,2006,8,31,10,Iraq,Baghdad,33.32855,44.481875,3,26,80,47.6
31764,2.00608E+11,2006.666667,2006,8,31,10,Iraq,Baghdad,33.348329,44.430587,3,26,80,47.6
31786,2.00609E+11,2006.75,2006,9,6,10,Iraq,Baghdad,33.380322,44.396964,3,9,39,21
31799,2.00609E+11,2006.75,2006,9,8,6,Afghanistan,Kabul,34.533056,69.166111,3,17,29,21.8
31815,2.00609E+11,2006.75,2006,9,11,6,Afghanistan,Tani,33.241286,69.830128,3,8,40,20.8
31829,2.00609E+11,2006.75,2006,9,13,10,Iraq,Baghdad,33.3,44.4,3,12,34,20.8
31830,2.00609E+11,2006.75,2006,9,13,10,Iraq,Baghdad,33.322081,44.451217,3,22,34,26.8
31831,2.00609E+11,2006.75,2006,9,13,10,Iraq,Baghdad,33.411707,44.432341,3,14,67,35.2
31843,2.00609E+11,2006.75,2006,9,16,5,Thailand,Hat Yai,7.013983,100.471242,3,4,59,26
31848,2.00609E+11,2006.75,2006,9,17,10,Iraq,Kirkuk,35.46883,44.39098,3,27,73,45.4
31877,2.00609E+11,2006.75,2006,9,23,10,Iraq,Baghdad,33.3,44.4,3,31,40,34.6
31922,2.00609E+11,2006.75,2006,9,30,6,Afghanistan,Kabul,34.533056,69.166111,3,13,50,27.8
31938,2.0061E+11,2006.833333,2006,10,4,10,Iraq,Baghdad,33.3,44.4,3,16,87,44.4
31976,2.0061E+11,2006.833333,2006,10,10,11,Chad,Unknown,,,2,40,0,24
32010,2.0061E+11,2006.833333,2006,10,16,6,Sri Lanka,Trincomalee,8.5922,81.196796,3,103,150,121.8
32016,2.0061E+11,2006.833333,2006,10,16,10,Iraq,Baghdad,33.3,44.4,3,20,27,22.8
32031,2.0061E+11,2006.833333,2006,10,19,10,Iraq,Khalis,33.851043,44.519491,3,17,37,25
32034,2.0061E+11,2006.833333,2006,10,19,10,Iraq,Amarah,31.837565,47.150821,2,9,59,29
32035,2.0061E+11,2006.833333,2006,10,19,10,Iraq,Kirkuk,35.46883,44.39098,3,12,68,34.4
32038,2.0061E+11,2006.833333,2006,10,19,11,Sudan,Juba,4.850885,31.599925,2,42,16,31.6
32041,2.0061E+11,2006.833333,2006,10,20,6,Pakistan,Peshawar,34.009667,71.579994,3,7,41,20.6
32047,2.0061E+11,2006.833333,2006,10,22,10,Iraq,Mahmudiyah,33.055377,44.37146,3,32,53,40.4
32057,2.0061E+11,2006.833333,2006,10,22,10,Iraq,Mahmudiyah,33.055377,44.37146,3,16,60,33.6
32068,2.0061E+11,2006.833333,2006,10,26,10,Iraq,Baqubah,33.75,44.633333,2,42,15,31.2
32094,2.0061E+11,2006.833333,2006,10,29,11,Sudan,Unknown,,,2,63,0,37.8
32098,2.0061E+11,2006.833333,2006,10,30,10,Iraq,Baghdad,33.389934,44.460652,3,33,59,43.4
32110,2.00611E+11,2006.916667,2006,11,1,10,Iraq,Baghdad,33.3,44.4,3,23,19,21.4
32114,2.00611E+11,2006.916667,2006,11,2,10,Iraq,Baghdad,33.389934,44.460652,3,7,45,22.2
32118,2.00611E+11,2006.916667,2006,11,3,10,Iraq,Baghdad,33.389934,44.460652,3,5,53,24.2
32121,2.00611E+11,2006.916667,2006,11,5,6,India,Guwahati,26.179222,91.753346,3,11,53,27.8
32124,2.00611E+11,2006.916667,2006,11,6,6,India,Guwahati,26.1503,91.736061,3,15,50,29
32128,2.00611E+11,2006.916667,2006,11,7,10,Iraq,Baghdad,33.3,44.4,3,21,25,22.6
32136,2.00611E+11,2006.916667,2006,11,8,6,Sri Lanka,Vakarai,8.13691,81.434079,2,45,200,107
32140,2.00611E+11,2006.916667,2006,11,9,10,Iraq,Baghdad,33.3,44.4,3,16,52,30.4
32151,2.00611E+11,2006.916667,2006,11,11,11,Sudan,Muhajiriyah,11.994044,25.631861,2,80,0,48
32153,2.00611E+11,2006.916667,2006,11,12,10,Iraq,Baghdad,33.3,44.4,3,35,56,43.4
32159,2.00611E+11,2006.916667,2006,11,13,11,Sudan,Unknown,,,2,30,40,34
32193,2.00611E+11,2006.916667,2006,11,19,10,Iraq,Hillah,32.483866,44.433243,3,22,44,30.8
32201,2.00611E+11,2006.916667,2006,11,19,10,Iraq,Baghdad,33.3,44.4,3,10,45,24
32208,2.00611E+11,2006.916667,2006,11,20,6,India,Belacoba,26.591367,88.588686,3,8,60,28.8
32210,2.00611E+11,2006.916667,2006,11,20,11,Sudan,Umm Bayi,11.649058,24.904046,2,80,0,48
32223,2.00611E+11,2006.916667,2006,11,23,10,Iraq,Baghdad,33.389969,44.460652,3,202,257,224
32231,2.00611E+11,2006.916667,2006,11,24,10,Iraq,Baghdad,33.354467,44.318925,2,25,14,20.6
32233,2.00611E+11,2006.916667,2006,11,24,10,Iraq,Tal Afar,36.374029,42.451435,3,23,43,31
32244,2.00611E+11,2006.916667,2006,11,25,11,Chad,Abeche,13.83311,20.834835,2,40,0,24
32288,2.00612E+11,2007,2006,12,3,10,Iraq,Baghdad,33.3,44.4,3,48,87,63.6
32297,2.00612E+11,2007,2006,12,3,10,Iraq,Baghdad,33.336429,44.400275,3,61,90,72.6
32300,2.00612E+11,2007,2006,12,3,10,Iraq,Baghdad,33.3,44.4,3,51,90,66.6
32309,2.00612E+11,2007,2006,12,4,10,Iraq,Baghdad,33.3,44.4,3,8,40,20.8
32320,2.00612E+11,2007,2006,12,5,10,Iraq,Jalula,34.272837,45.167631,3,13,55,29.8
32323,2.00612E+11,2007,2006,12,6,10,Iraq,Baghdad,33.344459,44.385278,3,8,40,20.8
32331,2.00612E+11,2007,2006,12,9,10,Iraq,Karbala,32.614481,44.024968,3,5,44,20.6
32338,2.00612E+11,2007,2006,12,12,10,Iraq,Baghdad,33.330607,44.412535,3,61,148,95.8
32341,2.00612E+11,2007,2006,12,12,10,Iraq,Baghdad,33.330607,44.412535,3,46,148,86.8
32404,2.00612E+11,2007,2006,12,27,10,Iraq,Baghdad,33.3,44.4,3,25,55,37
32405,2.00612E+11,2007,2006,12,27,10,Iraq,Baghdad,33.371795,44.358453,3,17,35,24.2
32422,2.00612E+11,2007,2006,12,29,10,Iraq,Baghdad,33.354467,44.318925,3,13,51,28.2
32452,2.00701E+11,2007.083333,2007,1,5,6,India,Sadiya,27.508487,95.177208,2,48,19,36.4
32457,2.00701E+11,2007.083333,2007,1,6,6,Sri Lanka,Meetiyagoda,6.189834,80.095394,3,12,47,26
32504,2.00701E+11,2007.083333,2007,1,15,10,Iraq,Mosul,36.34,43.13,3,8,40,20.8
32505,2.00701E+11,2007.083333,2007,1,16,10,Iraq,Baghdad,33.36723,44.402241,3,65,123,88.2
32537,2.00701E+11,2007.083333,2007,1,22,10,Iraq,Baghdad,33.295639,44.427831,3,88,160,116.8
32564,2.00701E+11,2007.083333,2007,1,25,10,Iraq,Baghdad,33.3,44.4,3,26,54,37.2
32576,2.00701E+11,2007.083333,2007,1,27,10,Iraq,Baghdad,33.3,44.4,3,15,55,31
32609,2.00702E+11,2007.166667,2007,2,1,10,Iraq,Hillah,32.483333,44.433333,3,57,150,94.2
32613,2.00702E+11,2007.166667,2007,2,1,11,Chad,Adre,13.469215,22.192856,2,32,70,47.2
32626,2.00702E+11,2007.166667,2007,2,3,10,Iraq,Baghdad,33.3,44.4,3,120,246,170.4
32633,2.00702E+11,2007.166667,2007,2,3,10,West Bank and Gaza Strip,Gaza,31.522561,34.453593,7,17,200,90.2
32704,2.00702E+11,2007.166667,2007,2,12,10,Iraq,Baghdad,33.3,44.4,3,66,150,99.6
32742,2.00702E+11,2007.166667,2007,2,17,6,Pakistan,Quetta,30.182971,66.998734,3,16,35,23.6
32743,2.00702E+11,2007.166667,2007,2,17,10,Iraq,Kirkuk,35.46883,44.39098,3,13,65,33.8
32749,2.00702E+11,2007.166667,2007,2,18,10,Iraq,Baghdad,33.3,44.4,3,56,127,84.4
32767,2.00702E+11,2007.166667,2007,2,19,11,Chad,Fada,17.194404,21.585861,9,63,45,55.8
32770,2.00702E+11,2007.166667,2007,2,19,11,Somalia,Mogadishu,2.03742,45.337971,3,13,100,47.8
32773,2.00702E+11,2007.166667,2007,2,20,10,Iraq,Baghdad,33.3,44.4,3,9,150,65.4
32784,2.00702E+11,2007.166667,2007,2,21,10,Iraq,Najaf,32.000596,44.330818,3,9,43,22.6
32801,2.00702E+11,2007.166667,2007,2,24,10,Iraq,Habbaniyah,33.38223,43.572669,3,35,60,45
32819,2.00702E+11,2007.166667,2007,2,27,6,Afghanistan,Bagram Air Field,34.944168,69.273331,3,24,27,25.2
32853,2.00703E+11,2007.25,2007,3,4,6,Afghanistan,Mar Koh,34.250512,70.808164,3,11,34,20.2
32857,2.00703E+11,2007.25,2007,3,5,10,Iraq,Baghdad,33.3,44.4,3,31,65,44.6
32861,2.00703E+11,2007.25,2007,3,6,10,Iraq,Hillah,32.483494,44.433269,3,92,200,135.2
32865,2.00703E+11,2007.25,2007,3,7,10,Iraq,Balad Ruz,33.7,45.083333,3,31,25,28.6
32870,2.00703E+11,2007.25,2007,3,10,10,Iraq,Baghdad,33.389934,44.460652,3,29,40,33.4
32872,2.00703E+11,2007.25,2007,3,11,10,Iraq,Baghdad,33.298668,44.423197,3,31,39,34.2
32875,2.00703E+11,2007.25,2007,3,11,10,Iraq,Baghdad,33.3,44.4,3,29,33,30.6
32876,2.00703E+11,2007.25,2007,3,11,10,Iraq,Baghdad,33.3,44.4,3,32,24,28.8
32889,2.00703E+11,2007.25,2007,3,15,6,India,Ranibodli,19.086111,80.715556,2,55,12,37.8
32897,2.00703E+11,2007.25,2007,3,16,10,Iraq,Amriyat al-Fallujah,33.165298,43.865418,3,1.67,100,41.002
32898,2.00703E+11,2007.25,2007,3,16,10,Iraq,Albu Issa,33.520717,44.024424,3,1.66,250,100.996
32923,2.00703E+11,2007.25,2007,3,19,10,Iraq,Kirkuk,35.46883,44.39098,3,13,50,27.8
32974,2.00703E+11,2007.25,2007,3,24,10,Iraq,Baghdad,33.3,44.4,3,20,26,22.4
33016,2.00703E+11,2007.25,2007,3,27,10,Iraq,Kirkuk,35.46883,44.39098,2,2,50,21.2
33030,2.00703E+11,2007.25,2007,3,28,10,Iraq,Tal Afar,36.374029,42.451435,2,45,0,27
33032,2.00703E+11,2007.25,2007,3,28,10,Iraq,Ramadi,33.431899,43.311566,3,17,32,23
33046,2.00703E+11,2007.25,2007,3,30,10,Iraq,Tal Afar,36.374029,42.451435,6,145,170,155
33047,2.00703E+11,2007.25,2007,3,30,10,Iraq,Baghdad,33.41171,44.43234,3,72,130,95.2
33048,2.00703E+11,2007.25,2007,3,30,10,Iraq,Khalis,33.851043,44.519491,3,53,103,73
33049,2.00703E+11,2007.25,2007,3,30,10,Iraq,Tal Afar,36.374029,42.451435,3,145,170,155
33061,2.00703E+11,2007.25,2007,3,31,10,Iraq,Baghdad,33.3,44.4,3,7,47,23
33066,2.00703E+11,2007.25,2007,3,27,10,Iraq,Tal Afar,36.374029,42.451435,3,153,347,230.6
33087,2.00704E+11,2007.333333,2007,4,3,10,Iraq,Kirkuk,35.46883,44.39098,3,12,178,78.4
33105,2.00704E+11,2007.333333,2007,4,6,10,Iraq,Ramadi,33.431899,43.311566,3,20,30,24
33113,2.00704E+11,2007.333333,2007,4,6,6,Pakistan,Parachinar,33.896729,70.099832,2,10,83,39.2
33122,2.00704E+11,2007.333333,2007,4,8,10,Iraq,Mahmudiyah,33.061245,44.354099,3,17,26,20.6
33135,2.00704E+11,2007.333333,2007,4,10,10,Iraq,Muqdadiyah,33.971348,44.92668,3,16,33,22.8
33145,2.00704E+11,2007.333333,2007,4,11,10,Algeria,Algiers,36.752887,3.042048,3,30,160,82
33155,2.00704E+11,2007.333333,2007,4,11,11,Sudan,Unknown,15.767284,24.902277,2,40,25,34
33180,2.00704E+11,2007.333333,2007,4,14,10,Iraq,Karbala,32.614481,44.024968,3,36,168,88.8
33192,2.00704E+11,2007.333333,2007,4,15,10,Iraq,Baghdad,33.3,44.4,3,34,50,40.4
33195,2.00704E+11,2007.333333,2007,4,15,11,Sudan,Unknown,15.767284,24.902277,2,73,0,43.8
33210,2.00704E+11,2007.333333,2007,4,18,10,Iraq,Baghdad,33.337634,44.402043,3,127,148,135.4
33211,2.00704E+11,2007.333333,2007,4,18,10,Iraq,Baghdad,33.389934,44.460652,3,42,76,55.6
33234,2.00704E+11,2007.333333,2007,4,22,10,Iraq,Baghdad,33.268315,44.34494,3,15,82,41.8
33236,2.00704E+11,2007.333333,2007,4,22,6,Afghanistan,Khost,33.336728,69.923834,3,11,40,22.6
33242,2.00704E+11,2007.333333,2007,4,23,10,Iraq,Ramadi,33.431899,43.311566,3,20,35,26
33252,2.00704E+11,2007.333333,2007,4,24,11,Ethiopia,Abole,10.950041,39.499999,2,74,0,44.4
33268,2.00704E+11,2007.333333,2007,4,28,10,Iraq,Hit,33.639521,42.838015,3,16,35,23.6
33269,2.00704E+11,2007.333333,2007,4,28,6,Pakistan,Charsadda,34.148181,71.730028,3,31,50,38.6
33270,2.00704E+11,2007.333333,2007,4,28,10,Iraq,Karbala,32.614481,44.024968,3,69,178,112.6
33281,2.00704E+11,2007.333333,2007,4,30,10,Iraq,Khalis,33.851043,44.519491,3,33,60,43.8
33289,2.00705E+11,2007.416667,2007,5,1,10,Iraq,Khalis,33.851043,44.519491,3,32,64,44.8
33314,2.00705E+11,2007.416667,2007,5,7,10,Iraq,Ramadi district,33.431899,43.311566,3,22,40,29.2
33334,2.00705E+11,2007.416667,2007,5,13,10,Iraq,Makhmour,35.765326,43.590168,3,30,60,42
33344,2.00705E+11,2007.416667,2007,5,15,10,Iraq,Abu Saydah,33.927271,44.773299,3,32,50,39.2
33360,2.00705E+11,2007.416667,2007,5,18,3,Peru,Juliaca,-15.493296,-70.135574,3,6,48,22.8
33363,2.00705E+11,2007.416667,2007,5,18,6,India,Hyderabad,17.376812,78.487812,3,13,64,33.4
33383,2.00705E+11,2007.416667,2007,5,22,10,Turkey,Ankara,39.933971,32.858521,3,5,50,23
33384,2.00705E+11,2007.416667,2007,5,22,10,Iraq,Baghdad,33.3,44.4,3,24,60,38.4
33419,2.00705E+11,2007.416667,2007,5,27,11,Democratic Republic of the Congo,Kaniola,-12.51825,29.29954,2,17,28,21.4
33431,2.00705E+11,2007.416667,2007,5,28,11,Ethiopia,Jijiga,9.350843,42.801628,3,5,52,23.8
33434,2.00705E+11,2007.416667,2007,5,28,10,Iraq,Baghdad,33.3,44.4,3,21,28,23.8
33443,2.00705E+11,2007.416667,2007,5,29,10,Iraq,Baghdad,33.28131,44.326021,3,25,75,45
33454,2.00705E+11,2007.416667,2007,5,31,10,Iraq,Fallujah,33.35004,43.783488,3,26,50,35.6
33468,2.00706E+11,2007.5,2007,6,1,10,Iraq,Baghdad,33.3,44.4,3,12,40,23.2
33512,2.00706E+11,2007.5,2007,6,2,6,Sri Lanka,Pampaimadu,8.785598,80.41596,2,62,20,45.2
33748,2.00706E+11,2007.5,2007,6,9,10,Iraq,Alexandria,32.874886,44.281016,3,15,30,21
33781,2.00706E+11,2007.5,2007,6,10,10,Iraq,Tikrit,34.604447,43.685789,3,16,50,29.6
33988,2.00706E+11,2007.5,2007,6,17,6,Afghanistan,Kabul,34.533056,69.166111,3,36,52,42.4
33996,2.00706E+11,2007.5,2007,6,19,10,Iraq,Baghdad,33.3,44.4,3,79,200,127.4
34001,2.00706E+11,2007.5,2007,6,21,10,Iraq,Sulayman Beg,34.788274,44.667751,3,18,66,37.2
34007,2.00706E+11,2007.5,2007,6,22,11,Niger,Agadez,16.9738889,7.9908333,6,15,43,26.2
34018,2.00706E+11,2007.5,2007,6,25,10,Iraq,Baiji,34.929159,43.493025,3,16,50,29.6
34038,2.00706E+11,2007.5,2007,6,29,10,Iraq,Baghdad,33.268315,44.34494,3,22,50,33.2
34043,2.00706E+11,2007.5,2007,6,30,10,Iraq,Muqdadiyah,33.971506,44.92687,3,20,22,20.8
34070,2.00707E+11,2007.583333,2007,7,3,10,Iraq,Baghdad,33.411707,44.432341,3,18,35,24.8
34090,2.00707E+11,2007.583333,2007,7,4,6,Pakistan,Islamabad,33.708988,73.053857,6,7,207,87
34095,2.00707E+11,2007.583333,2007,7,5,10,Iraq,Baghdad,33.3,44.4,3,18,24,20.4
34110,2.00707E+11,2007.583333,2007,7,6,10,Iraq,Khanaqin district,34.240378,45.136952,3,27,33,29.4
34116,2.00707E+11,2007.583333,2007,7,7,10,Iraq,Amerli,34.726456,44.585492,3,150,250,190
34119,2.00707E+11,2007.583333,2007,7,8,10,Iraq,Haswah,33.278425,43.946356,3,23,27,24.6
34139,2.00707E+11,2007.583333,2007,7,10,10,Iraq,Fallujah,33.35004,43.783488,3,21,50,32.6
34140,2.00707E+11,2007.583333,2007,7,10,10,Iraq,Sherween,33.773349,45.14945,2,43,40,41.8
34144,2.00707E+11,2007.583333,2007,7,10,6,Pakistan,Islamabad,33.708988,73.053857,2,96,35,71.6
34146,2.00707E+11,2007.583333,2007,7,11,10,Algeria,Algiers,36.562222,3.594444,3,11,35,20.6
34164,2.00707E+11,2007.583333,2007,7,14,6,Pakistan,Miran Shah,32.998617,70.067081,3,25,26,25.4
34168,2.00707E+11,2007.583333,2007,7,15,6,Pakistan,Dera Ismail Khan,31.82851,70.907234,3,27,60,40.2
34177,2.00707E+11,2007.583333,2007,7,16,6,Pakistan,Matta,34.931154,72.416695,3,16,47,28.4
34178,2.00707E+11,2007.583333,2007,7,16,6,Pakistan,Dera Ismail Khan,31.82851,70.907234,3,21,35,26.6
34190,2.00707E+11,2007.583333,2007,7,17,6,Pakistan,Islamabad,33.708988,73.053857,3,17,63,35.4
34191,2.00707E+11,2007.583333,2007,7,18,10,Iraq,Kirkuk,35.46883,44.39098,3,80,183,121.2
34193,2.00707E+11,2007.583333,2007,7,18,6,Pakistan,Islamabad,33.708988,73.053857,3,14,40,24.4
34215,2.00707E+11,2007.583333,2007,7,20,6,Pakistan,Hub,25.033647,66.881224,3,25,20,23
34245,2.00707E+11,2007.583333,2007,7,24,10,Iraq,Hillah,32.483494,44.433269,3,33,117,66.6
34248,2.00707E+11,2007.583333,2007,7,25,6,Pakistan,Bannu,32.984995,70.606944,3,9,41,21.8
34252,2.00707E+11,2007.583333,2007,7,27,10,Iraq,Baghdad,33.298668,44.423197,3,25,115,61
34253,2.00707E+11,2007.583333,2007,7,27,10,Iraq,Baghdad,33.314654,44.347298,3,30,75,48
34254,2.00707E+11,2007.583333,2007,7,27,10,Iraq,Baghdad,33.316458,44.472644,3,20,60,36
34255,2.00707E+11,2007.583333,2007,7,27,6,Pakistan,Islamabad,33.708988,73.053857,3,12,43,24.4
34257,2.00707E+11,2007.583333,2007,7,27,6,Pakistan,Islamabad,33.708988,73.053857,3,15,64,34.6
34278,2.00708E+11,2007.666667,2007,8,2,10,Iraq,Baghdad,33.314654,44.347298,3,50,20,38
34279,2.00708E+11,2007.666667,2007,8,2,10,Iraq,Baghdad,33.298668,44.422857,3,20,40,28
34304,2.00708E+11,2007.666667,2007,8,7,10,Iraq,Tal Afar,36.374029,42.451435,3,28,19,24.4
34312,2.00708E+11,2007.666667,2007,8,10,10,Iraq,Kirkuk,35.46883,44.39098,3,7,47,23
34333,2.00708E+11,2007.666667,2007,8,15,9,Russia,Velikiy Novgorod,58.51667,31.28333,3,0,60,24
34336,2.00708E+11,2007.666667,2007,8,14,10,Iraq,Qahtaniya,36.202961,41.687426,3,250,750,450
34344,2.00708E+11,2007.666667,2007,8,14,10,Iraq,Jazeera,36.183247,41.591599,3,250,750,450
34354,2.00708E+11,2007.666667,2007,8,18,6,Afghanistan,Kandahar,31.617667,65.675942,3,25,20,23
34356,2.00708E+11,2007.666667,2007,8,18,10,Iraq,Kirkuk,35.46883,44.39098,3,3,54,23.4
34386,2.00708E+11,2007.666667,2007,8,22,10,Iraq,Baiji,34.929159,43.493025,3,20,40,28
34422,2.00708E+11,2007.666667,2007,8,25,6,India,Hyderabad,17.376812,78.487812,3,40,100,64
34437,2.00708E+11,2007.666667,2007,8,28,10,Iraq,Karbala,32.614481,44.024968,2,27,147,75
34464,2.00708E+11,2007.666667,2007,8,31,11,Sudan,Kordofan,13.083717,30.350207,2,46,11,32
34489,2.00709E+11,2007.75,2007,9,4,6,Pakistan,Rawalpindi,33.600399,73.043426,3,18,35,24.8
34497,2.00709E+11,2007.75,2007,9,6,10,Algeria,Batna,35.55,6.166667,3,16,74,39.2
34510,2.00709E+11,2007.75,2007,9,8,10,Algeria,Dellys,36.919552,3.891396,3,30,47,36.8
34515,2.00709E+11,2007.75,2007,9,10,6,Afghanistan,Gereshk,31.816667,64.55,3,28,60,40.8
34527,2.00709E+11,2007.75,2007,9,13,6,Pakistan,Tarbela,34.061786,72.694561,3,16,27,20.4
34560,2.00709E+11,2007.75,2007,9,19,10,Lebanon,Sin el Fil,33.872894,35.535687,3,7,56,26.6
34598,2.00709E+11,2007.75,2007,9,24,10,Iraq,Baqubah,33.75,44.633333,3,20,30,24
34613,2.00709E+11,2007.75,2007,9,26,10,Iraq,Mosul,36.34,43.13,3,4,47,21.2
34614,2.00709E+11,2007.75,2007,9,26,10,Iraq,Baghdad,33.268315,44.34494,3,32,11,23.6
34634,2.00709E+11,2007.75,2007,9,30,6,India,Doom Dooma,27.566417,95.555165,3,5,60,27
34679,2.0071E+11,2007.833333,2007,10,4,10,Iraq,Tal Afar,36.374029,42.451435,3,4,57,25.2
34758,2.0071E+11,2007.833333,2007,10,11,10,Iraq,Kirkuk,35.46883,44.39098,3,8,50,24.8
34807,2.0071E+11,2007.833333,2007,10,18,6,Pakistan,Karachi,24.889054,67.100078,3,141,250,184.6
34822,2.0071E+11,2007.833333,2007,10,19,5,Philippines,Makati City,14.551549,121.023174,3,8,130,56.8
34885,2.0071E+11,2007.833333,2007,10,25,6,Pakistan,Mingora,34.77436,72.356922,3,21,34,26.2
34933,2.0071E+11,2007.833333,2007,10,29,10,Iraq,Baqubah,33.75,44.633333,3,29,21,25.8
35049,2.00711E+11,2007.916667,2007,11,6,6,Afghanistan,Baghlan,36.177846,68.754044,3,64,95,76.4
35294,2.00711E+11,2007.916667,2007,11,18,6,Pakistan,Parachinar,33.896729,70.099832,2,90,150,114
35366,2.00711E+11,2007.916667,2007,11,23,10,Iraq,Baghdad,33.3,44.4,3,13,57,30.6
35380,2.00711E+11,2007.916667,2007,11,24,6,India,Lucknow,26.846694,80.946166,3,13,60,31.8
35381,2.00711E+11,2007.916667,2007,11,24,6,India,Varanasi,25.317645,82.973914,3,13,60,31.8
35382,2.00711E+11,2007.916667,2007,11,24,6,India,Faizabad,26.77,82.15,3,13,60,31.8
35470,2.00711E+11,2007.916667,2007,11,29,6,Sri Lanka,Colombo,6.927079,79.861243,3,17,43,27.4
35529,2.00712E+11,2008,2007,12,5,6,Sri Lanka,Anuradhapura district,8.345185,80.388133,3,15,38,24.2
35530,2.00712E+11,2008,2007,12,5,10,Iraq,Baghdad,33.3,44.4,3,15,28,20.2
35589,2.00712E+11,2008,2007,12,11,10,Algeria,Algiers,36.752887,3.042048,3,67,100,80.2
35597,2.00712E+11,2008,2007,12,12,6,Pakistan,Miran Shah,32.998617,70.067081,2,21,20,20.6
35599,2.00712E+11,2008,2007,12,12,10,Iraq,Amarah,31.837565,47.150821,3,42,125,75.2
35639,2.00712E+11,2008,2007,12,17,11,Somalia,Mogadishu,2.03742,45.337971,3,34,40,36.4
35651,2.00712E+11,2008,2007,12,21,6,Pakistan,Charsadda,34.148181,71.730028,3,72,101,83.6
35663,2.00712E+11,2008,2007,12,25,10,Iraq,Baiji,34.929159,43.493025,3,20,80,44
35670,2.00712E+11,2008,2007,12,27,6,Pakistan,Rawalpindi,33.600399,73.043426,1,20,100,52
35680,2.00801E+11,2008.083333,2008,1,1,10,Iraq,Baghdad,33.3,44.4,3,37,30,34.2
35723,2.00801E+11,2008.083333,2008,1,3,10,Turkey,Diyarbakir,37.924678,40.211448,3,4,68,29.6
35848,2.00801E+11,2008.083333,2008,1,15,10,West Bank and Gaza Strip,Unknown,31.356663,34.327162,2,15,45,27
35855,2.00801E+11,2008.083333,2008,1,16,6,Sri Lanka,Buttala,6.758923,81.24913,3,26,60,39.6
35919,2.00801E+11,2008.083333,2008,1,23,10,Iraq,Mosul,36.34,43.13,3,7,70,32.2
36005,2.00802E+11,2008.166667,2008,2,1,10,Iraq,Baghdad,33.3,44.4,3,90,130,106
36009,2.00802E+11,2008.166667,2008,2,2,11,Chad,N'Djamena,12.120819,15.086542,2,160,1001,496.4
36011,2.00802E+11,2008.166667,2008,2,2,6,Sri Lanka,Dambulla,7.900694,80.680499,3,18,51,31.2
36014,2.00802E+11,2008.166667,2008,2,3,6,Sri Lanka,Ambepussa,7.256096,80.169284,3,8,100,44.8
36024,2.00802E+11,2008.166667,2008,2,5,11,Somalia,Bosaso,11.28428,49.180423,3,21,100,52.6
36032,2.00802E+11,2008.166667,2008,2,9,6,Pakistan,Charsadda,34.148181,71.730028,3,18,25,20.8
36035,2.00802E+11,2008.166667,2008,2,10,10,Iraq,Balad,34.016389,44.145278,3,23,40,29.8
36058,2.00802E+11,2008.166667,2008,2,15,6,India,Nayagarh District,20.127343,85.105059,2,34,10,24.4
36063,2.00802E+11,2008.166667,2008,2,16,6,Pakistan,Parachinar,33.896729,70.099832,3,38,93,60
36069,2.00802E+11,2008.166667,2008,2,17,6,Afghanistan,Kandahar,31.617667,65.675942,3,101,100,100.6
36080,2.00802E+11,2008.166667,2008,2,18,6,Afghanistan,Spin Boldak,31.008056,66.398056,3,39,41,39.8
36132,2.00802E+11,2008.166667,2008,2,24,10,Iraq,Iskandariyah,32.88504,44.348,3,64,68,65.6
36184,2.00803E+11,2008.25,2008,3,3,10,Iraq,Baghdad,33.354802,44.391023,3,12,46,25.6
36205,2.00803E+11,2008.25,2008,3,6,10,Iraq,Baghdad,33.298668,44.423197,3,56,130,85.6
36248,2.00803E+11,2008.25,2008,3,11,6,Pakistan,Lahore,31.554606,74.357158,3,27,200,96.2
36276,2.00803E+11,2008.25,2008,3,15,6,India,Murkongselek,27.829312,95.219502,3,4,53,23.6
36321,2.00803E+11,2008.25,2008,3,17,10,Iraq,Karbala,32.614481,44.024968,3,40,65,50
36393,2.00803E+11,2008.25,2008,3,23,10,Iraq,Mosul,36.34,43.13,3,13,42,24.6
36571,2.00804E+11,2008.333333,2008,4,6,6,Sri Lanka,Weliweriya,7.031878,80.028341,3,15,83,42.2
36679,2.00804E+11,2008.333333,2008,4,12,10,Iran,Shiraz,29.591325,52.58361,3,12,200,87.2
36735,2.00804E+11,2008.333333,2008,4,15,10,Iraq,Baqubah,33.75,44.633333,3,42,80,57.2
36769,2.00804E+11,2008.333333,2008,4,17,10,Iraq,Abu Mohammed,33.918611,44.921111,3,46,60,51.6
36770,2.00804E+11,2008.333333,2008,4,17,6,Afghanistan,Zaranj,30.96,61.86,3,25,30,27
36895,2.00804E+11,2008.333333,2008,4,25,6,Sri Lanka,Piliyandala,6.801803,79.922684,3,26,70,43.6
36952,2.00804E+11,2008.333333,2008,4,29,6,Afghanistan,Khogyani district,34.229213,70.193208,3,19,31,23.8
36985,2.00805E+11,2008.416667,2008,5,1,10,Iraq,Balad Ruz,33.7,45.083333,3,36,66,48
36996,2.00805E+11,2008.416667,2008,5,1,10,Iraq,Balad Ruz,33.7,45.083333,3,45,75,57
37007,2.00805E+11,2008.416667,2008,5,2,10,Yemen,Sadah,16.934746,43.76484,3,15,60,33
37082,2.00805E+11,2008.416667,2008,5,7,10,Lebanon,Tripoli,34.438094,35.830837,3,40,11,28.4
37140,2.00805E+11,2008.416667,2008,5,10,11,Sudan,Omdurman,15.648287,32.480719,2,134,0,80.4
37201,2.00805E+11,2008.416667,2008,5,14,10,Iraq,Zaidan,33.24529,44.02528,3,31,20,26.6
37209,2.00805E+11,2008.416667,2008,5,14,10,Israel,Ashkelon,31.669316,34.570802,3,0,62,24.8
37246,2.00805E+11,2008.416667,2008,5,16,6,Sri Lanka,Colombo,6.932252,79.84596,3,11,95,44.6
37335,2.00805E+11,2008.416667,2008,5,22,11,Mali,Abeibara,19.110108,1.749848,2,32,31,31.6
37392,2.00805E+11,2008.416667,2008,5,26,6,Sri Lanka,Dehiwala,6.855948,79.862968,3,9,70,33.4
37536,2.00806E+11,2008.5,2008,6,4,10,Iraq,Baghdad,33.411707,44.432341,3,18,29,22.4
37577,2.00806E+11,2008.5,2008,6,6,6,Sri Lanka,Moratuwa,6.788071,79.891281,3,22,60,37.2
37770,2.00806E+11,2008.5,2008,6,16,6,Sri Lanka,Vavuniya,8.738157,80.477147,3,13,40,23.8
37774,2.00806E+11,2008.5,2008,6,17,10,Iraq,Baghdad,33.354467,44.318925,3,63,75,67.8
37854,2.00806E+11,2008.5,2008,6,22,10,Lebanon,Tripoli,34.438094,35.830837,2,10,47,24.8
37909,2.00806E+11,2008.5,2008,6,26,10,Iraq,Mosul,36.34,43.13,3,18,62,35.6
38044,2.00807E+11,2008.583333,2008,7,2,10,Israel,Jerusalem,31.777119,35.227191,8,4,45,20.4
38102,2.00807E+11,2008.583333,2008,7,6,6,Pakistan,Islamabad,33.708988,73.053857,3,20,40,28
38104,2.00807E+11,2008.583333,2008,7,7,6,Afghanistan,Kabul,34.533056,69.166111,3,58,141,91.2
38166,2.00807E+11,2008.583333,2008,7,9,10,Lebanon,Tripoli,34.438094,35.830837,2,5,80,35
38219,2.00807E+11,2008.583333,2008,7,13,6,Afghanistan,Dihrawud,32.623739,65.456432,3,25,35,29
38256,2.00807E+11,2008.583333,2008,7,15,10,Iraq,Baqubah,33.75,44.633333,3,33,55,41.8
38262,2.00807E+11,2008.583333,2008,7,16,10,Iraq,Tal Afar,36.374029,42.451435,3,16,94,47.2
38429,2.00807E+11,2008.583333,2008,7,27,10,Turkey,Istanbul,41.020637,28.874461,3,17,154,71.8
38449,2.00807E+11,2008.583333,2008,7,28,10,Iraq,Baghdad,33.298668,44.423197,3,24,61,38.8
38450,2.00807E+11,2008.583333,2008,7,28,10,Iraq,Kirkuk,35.46883,44.39098,3,27,183,89.4
38572,2.00808E+11,2008.666667,2008,8,3,11,Somalia,Mogadishu,2.006809,45.277001,3,20,45,30
38648,2.00808E+11,2008.666667,2008,8,8,10,Iraq,Tal Afar,36.374029,42.451435,3,21,71,41
38728,2.00808E+11,2008.666667,2008,8,13,10,Lebanon,Tripoli,34.438094,35.830837,3,18,43,28
38738,2.00808E+11,2008.666667,2008,8,13,6,Pakistan,Lahore,31.554606,74.357158,3,11,40,22.6
38748,2.00808E+11,2008.666667,2008,8,14,3,Colombia,Ituango,7.172043,-75.763873,3,7,52,25
38753,2.00808E+11,2008.666667,2008,8,14,10,Iraq,Iskandariyah,32.88504,44.348,3,25,76,45.4
38799,2.00808E+11,2008.666667,2008,8,16,10,Iraq,Balad,34.016389,44.145278,3,9,40,21.4
38820,2.00808E+11,2008.666667,2008,8,17,10,Iraq,Baghdad,33.3681,44.36377,3,16,30,21.6
38837,2.00808E+11,2008.666667,2008,8,18,5,Philippines,Tangcal,8.020031,124.056593,2,37,0,22.2
38853,2.00808E+11,2008.666667,2008,8,19,6,Pakistan,Dera Ismail Khan,31.82851,70.907234,3,28,30,28.8
38859,2.00808E+11,2008.666667,2008,8,19,10,Algeria,Issers,36.72398,3.670848,3,44,45,44.4
38864,2.00808E+11,2008.666667,2008,8,20,11,Somalia,Kismayo,-0.357077,42.546636,2,28,39,32.4
38874,2.00808E+11,2008.666667,2008,8,21,6,Pakistan,Islamabad,33.708988,73.053857,3,64,100,78.4
38918,2.00808E+11,2008.666667,2008,8,24,10,Iraq,Zaydan,33.246542,44.025017,3,31,42,35.4
38953,2.00808E+11,2008.666667,2008,8,26,10,Iraq,Jalawlah,34.273724,45.165803,3,26,40,31.6
39062,2.00809E+11,2008.75,2008,9,10,6,Pakistan,Dir,35.202293,71.873006,3,25,50,35
39088,2.00809E+11,2008.75,2008,9,13,6,India,New Delhi,28.632381,77.220004,3,13,40,23.8
39102,2.00809E+11,2008.75,2008,9,15,1,Mexico,Morelia,19.700593,-101.186421,3,8,101,45.2
39154,2.00809E+11,2008.75,2008,9,20,6,Pakistan,Islamabad,33.708988,73.053857,3,61,200,116.6
39174,2.00809E+11,2008.75,2008,9,22,11,Somalia,Mogadishu,2.048682,45.319754,3,30,60,42
39230,2.00809E+11,2008.75,2008,9,28,10,Iraq,Baghdad,33.246555,44.315376,3,12,35,21.2
39250,2.00809E+11,2008.75,2008,9,29,6,India,Malegaon,20.554623,74.525987,3,4,61,26.8
39297,2.0081E+11,2008.833333,2008,10,6,6,Sri Lanka,Anuradhapura,8.345185,80.388133,1,29,80,49.4
39304,2.0081E+11,2008.833333,2008,10,7,11,Somalia,Mogadishu,2.03742,45.337971,3,20,35,26
39430,2.0081E+11,2008.833333,2008,10,20,10,Iraq,Jurf al-Sakhr,32.8657,44.21235,2,15,40,25
39562,2.0081E+11,2008.833333,2008,10,30,6,India,Dispur,26.140833,91.790833,3,37,235,116.2
39564,2.0081E+11,2008.833333,2008,10,30,6,India,Kokrajhar,26.398022,90.269415,3,20,64,37.6
39566,2.0081E+11,2008.833333,2008,10,30,6,India,Barpeta Road,26.499849,90.969535,3,14,46,26.8
39636,2.00811E+11,2008.916667,2008,11,4,5,Thailand,Sukhirin,5.95323,101.695444,3,1,70,28.6
39668,2.00811E+11,2008.916667,2008,11,5,9,Russia,Vladikavkaz,43.047456,44.665806,3,12,40,23.2
39671,2.00811E+11,2008.916667,2008,11,6,6,Pakistan,Bajaur district,34.733076,71.492391,1,18,45,28.8
39718,2.00811E+11,2008.916667,2008,11,10,10,Iraq,Baghdad,33.368141,44.363851,3,32,71,47.6
39752,2.00811E+11,2008.916667,2008,11,12,6,Afghanistan,Kandahar,31.617667,65.675942,3,7,42,21
39757,2.00811E+11,2008.916667,2008,11,12,10,Iraq,Baghdad,33.305081,44.488947,3,12,60,31.2
39799,2.00811E+11,2008.916667,2008,11,15,10,Iraq,Tal Afar,36.374029,42.451435,3,12,36,21.6
39883,2.00811E+11,2008.916667,2008,11,21,6,Pakistan,Dera Ismail Khan,31.82851,70.907234,3,10,40,22
39887,2.00811E+11,2008.916667,2008,11,21,6,Afghanistan,Chaharikar,35.013056,69.168889,3,8,62,29.6
39954,2.00811E+11,2008.916667,2008,11,26,6,India,Mumbai,19.075984,72.877656,2,58,76,65.2
39957,2.00811E+11,2008.916667,2008,11,26,6,India,Mumbai,19.075984,72.877656,6,68,76,71.2
39960,2.00811E+11,2008.916667,2008,11,26,6,India,Mumbai,19.075984,72.877656,3,9,76,35.8
39961,2.00811E+11,2008.916667,2008,11,26,6,India,Mumbai,19.075984,72.877656,6,32,22,28
40033,2.00812E+11,2009,2008,12,1,10,Iraq,Baghdad,33.334311,44.432852,3,17,46,28.6
40090,2.00812E+11,2009,2008,12,5,6,Pakistan,Peshawar,34.009667,71.579994,3,27,50,36.2
40147,2.00812E+11,2009,2008,12,11,10,Iraq,Kirkuk,35.46883,44.39098,3,56,120,81.6
40242,2.00812E+11,2009,2008,12,17,10,Iraq,Baghdad,33.358044,44.406374,3,18,65,36.8
40352,2.00812E+11,2009,2008,12,25,11,Democratic Republic of the Congo,Doruma,4.718282,27.683022,2,40,0,24
40378,2.00812E+11,2009,2008,12,26,11,Democratic Republic of the Congo,Doroma,4.718282,27.683022,2,89,0,53.4
40385,2.00812E+11,2009,2008,12,27,10,Iraq,Baghdad,33.367309,44.335437,3,25,54,36.6
40389,2.00812E+11,2009,2008,12,27,11,Democratic Republic of the Congo,Gurba,3.898484,27.239934,2,60,0,36
40394,2.00812E+11,2009,2008,12,28,6,Afghanistan,,33.358508,69.859741,1,17,58,33.4
40399,2.00812E+11,2009,2008,12,28,11,Democratic Republic of the Congo,Doruma,4.718282,27.683022,2,45,0,27
40406,2.00812E+11,2009,2008,12,28,6,Pakistan,Shalbandi,34.500469,72.521992,3,24,16,20.8
40450,2.00812E+11,2009,2008,12,31,10,Iraq,Sinjar,36.321738,41.865884,3,5,50,23
40482,2.00901E+11,2009.083333,2009,1,2,10,Iraq,Yusufiyah,33.078997,44.2599,1,30,110,62
40505,2.00901E+11,2009.083333,2009,1,4,10,Iraq,Baghdad,33.380005,44.338328,3,36,65,47.6
40884,2.00902E+11,2009.166667,2009,2,3,10,Iraq,Karbala,32.613992,44.025046,3,21,128,63.8
40920,2.00902E+11,2009.166667,2009,2,5,6,Pakistan,Dera Ghazi Khan,30.034319,70.639676,3,33,48,39
40965,2.00902E+11,2009.166667,2009,2,9,6,Sri Lanka,"Visuamadu,",9.386986,80.548432,3,30,64,43.6
40969,2.00902E+11,2009.166667,2009,2,10,6,Sri Lanka,Puthukkudiyiruppu,9.319927,80.696421,2,19,75,41.4
